[
    {
        "url": "https://www.zillow.com/homedetails/255-S-10th-Ave-Pocatello-ID-83201/113853044_zpid/",
        "streetAddress": "255 S 10th Ave",
        "yearBuilt": 1940,
        "sqrfSize": 2320,
        "lotSize": 4835,
        "lastSoldPrice": 0,
        "taxAssessedValue": 157470,
        "latitude": 42.86823654174805,
        "longitude": -112.43701934814453
    },
    {
        "url": "https://www.zillow.com/homedetails/405-E-Putnam-St-Pocatello-ID-83201/113839661_zpid/",
        "streetAddress": "405 E Putnam St",
        "yearBuilt": 1945,
        "sqrfSize": 1890,
        "lotSize": 4356,
        "lastSoldPrice": 0,
        "taxAssessedValue": 133991,
        "latitude": 42.858421325683594,
        "longitude": -112.4374008178711
    },
    {
        "url": "https://www.zillow.com/homedetails/570-E-Cedar-St-Pocatello-ID-83201/113834754_zpid/",
        "streetAddress": "570 E Cedar St",
        "yearBuilt": 1950,
        "sqrfSize": 1434,
        "lotSize": 8250,
        "lastSoldPrice": 0,
        "taxAssessedValue": 119683,
        "latitude": 42.88797378540039,
        "longitude": -112.44551086425781
    },
    {
        "url": "https://www.zillow.com/homedetails/2066-Satterfield-Dr-Pocatello-ID-83201/113839634_zpid/",
        "streetAddress": "2066 Satterfield Dr",
        "yearBuilt": 1992,
        "sqrfSize": 4816,
        "lotSize": 11325,
        "lastSoldPrice": 0,
        "taxAssessedValue": 330706,
        "latitude": 42.9128303527832,
        "longitude": -112.40959930419922
    },
    {
        "url": "https://www.zillow.com/homedetails/1315-Jane-St-Pocatello-ID-83201/113838546_zpid/",
        "streetAddress": "1315 Jane St",
        "yearBuilt": 1955,
        "sqrfSize": 1928,
        "lotSize": 7405,
        "lastSoldPrice": 0,
        "taxAssessedValue": 132279,
        "latitude": 42.88258361816406,
        "longitude": -112.43611907958984
    },
    {
        "url": "https://www.zillow.com/homedetails/2456-Northstar-Dr-Pocatello-ID-83201/113832678_zpid/",
        "streetAddress": "2456 Northstar Dr",
        "yearBuilt": 2007,
        "sqrfSize": 3834,
        "lotSize": 22215,
        "lastSoldPrice": 0,
        "taxAssessedValue": 385442,
        "latitude": 42.8924674987793,
        "longitude": -112.4162826538086
    },
    {
        "url": "https://www.zillow.com/homedetails/306-E-Lawton-St-Pocatello-ID-83201/2071180753_zpid/",
        "streetAddress": "306 E Lawton St",
        "yearBuilt": 1930,
        "sqrfSize": 2202,
        "lotSize": 4356,
        "lastSoldPrice": 0,
        "taxAssessedValue": 0,
        "latitude": 42.85421371459961,
        "longitude": -112.43421936035156
    },
    {
        "url": "https://www.zillow.com/homedetails/1826-Bonneville-Dr-Pocatello-ID-83201/2070549497_zpid/",
        "streetAddress": "1826 Bonneville Dr",
        "yearBuilt": 1952,
        "sqrfSize": 2064,
        "lotSize": 6969,
        "lastSoldPrice": 0,
        "taxAssessedValue": 0,
        "latitude": 42.887428283691406,
        "longitude": -112.35323333740234
    },
    {
        "url": "https://www.zillow.com/homedetails/737-W-Eldredge-Rd-Pocatello-ID-83201/113847946_zpid/",
        "streetAddress": "737 W Eldredge Rd",
        "yearBuilt": 1942,
        "sqrfSize": 2256,
        "lotSize": 20037,
        "lastSoldPrice": 0,
        "taxAssessedValue": 197833,
        "latitude": 42.89464569091797,
        "longitude": -112.46271514892578
    },
    {
        "url": "https://www.zillow.com/homedetails/LOT-44-Mount-Mcguire-Dr-Pocatello-ID-83201/2070897975_zpid/",
        "streetAddress": "LOT 44 Mount Mcguire Dr",
        "yearBuilt": "Unknown",
        "sqrfSize": 0,
        "lotSize": 14810,
        "lastSoldPrice": 0,
        "taxAssessedValue": 0,
        "latitude": 42.87727737426758,
        "longitude": -112.41191864013672
    },
    {
        "url": "https://www.zillow.com/homedetails/8435-N-Parks-Rd-Pocatello-ID-83201/113844335_zpid/",
        "streetAddress": "8435 N Parks Rd",
        "yearBuilt": 1970,
        "sqrfSize": 4152,
        "lotSize": 180338,
        "lastSoldPrice": 0,
        "taxAssessedValue": 562001,
        "latitude": 42.88264083862305,
        "longitude": -112.39664459228516
    },
    {
        "url": "https://www.zillow.com/homedetails/241-Park-Ave-Pocatello-ID-83201/113837934_zpid/",
        "streetAddress": "241 Park Ave",
        "yearBuilt": 1920,
        "sqrfSize": 1712,
        "lotSize": 4356,
        "lastSoldPrice": 0,
        "taxAssessedValue": 74222,
        "latitude": 42.8794059753418,
        "longitude": -112.44444274902344
    },
    {
        "url": "https://www.zillow.com/homedetails/1605-Sundance-Ln-Pocatello-ID-83201/113841531_zpid/",
        "streetAddress": "1605 Sundance Ln",
        "yearBuilt": 1984,
        "sqrfSize": 2752,
        "lotSize": 7840,
        "lastSoldPrice": 0,
        "taxAssessedValue": 271475,
        "latitude": 42.904109954833984,
        "longitude": -112.42960357666016
    },
    {
        "url": "https://www.zillow.com/homedetails/555-Willard-Ave-Pocatello-ID-83201/222807387_zpid/",
        "streetAddress": "555 Willard Ave",
        "yearBuilt": 1949,
        "sqrfSize": 1656,
        "lotSize": 6534,
        "lastSoldPrice": 0,
        "taxAssessedValue": 127217,
        "latitude": 42.885215759277344,
        "longitude": -112.44808197021484
    },
    {
        "url": "https://www.zillow.com/homedetails/2415-Gail-Dr-Pocatello-ID-83201/113841215_zpid/",
        "streetAddress": "2415 Gail Dr",
        "yearBuilt": 1999,
        "sqrfSize": 2670,
        "lotSize": 6534,
        "lastSoldPrice": 0,
        "taxAssessedValue": 189389,
        "latitude": 42.89155197143555,
        "longitude": -112.41818237304688
    },
    {
        "url": "https://www.zillow.com/homedetails/3519-Conlin-Rd-Pocatello-ID-83201/113830827_zpid/",
        "streetAddress": "3519 Conlin Rd",
        "yearBuilt": 1954,
        "sqrfSize": 1080,
        "lotSize": 10890,
        "lastSoldPrice": 0,
        "taxAssessedValue": 93646,
        "latitude": 42.895538330078125,
        "longitude": -112.47386169433594
    },
    {
        "url": "https://www.zillow.com/homedetails/625-S-4th-Ave-Pocatello-ID-83201/2101548077_zpid/",
        "streetAddress": "625 S 4th Ave",
        "yearBuilt": 2000,
        "sqrfSize": 25750,
        "lotSize": 65340,
        "lastSoldPrice": 0,
        "taxAssessedValue": 0,
        "latitude": 42.86164093017578,
        "longitude": -112.44011688232422
    },
    {
        "url": "https://www.zillow.com/homedetails/Mount-Mcguire-Dr-LOT-43-Pocatello-ID-83201/2072284727_zpid/",
        "streetAddress": "Mount Mcguire Dr LOT 43",
        "yearBuilt": 2021,
        "sqrfSize": 3045,
        "lotSize": 14810,
        "lastSoldPrice": 0,
        "taxAssessedValue": 0,
        "latitude": 42.87588882446289,
        "longitude": -112.4121322631836
    },
    {
        "url": "https://www.zillow.com/homedetails/760-W-Alameda-Rd-TRAILER-28-Pocatello-ID-83201/113840502_zpid/",
        "streetAddress": "760 W Alameda Rd TRAILER 28",
        "yearBuilt": 1976,
        "sqrfSize": 1021,
        "lotSize": 0,
        "lastSoldPrice": 0,
        "taxAssessedValue": 4630,
        "latitude": 42.891536712646484,
        "longitude": -112.46430969238281
    },
    {
        "url": "https://www.zillow.com/homedetails/0-Shetland-Ave-Pocatello-ID-83201/2073393843_zpid/",
        "streetAddress": "0 Shetland Ave",
        "yearBuilt": "Unknown",
        "sqrfSize": 0,
        "lotSize": 7840,
        "lastSoldPrice": 0,
        "taxAssessedValue": 0,
        "latitude": 42.91093063354492,
        "longitude": -112.42507934570312
    },
    {
        "url": "https://www.zillow.com/homedetails/0-Shetland-Ave-2-Pocatello-ID-83201/2073345916_zpid/",
        "streetAddress": "0 Shetland Ave #2",
        "yearBuilt": "Unknown",
        "sqrfSize": 0,
        "lotSize": 7840,
        "lastSoldPrice": 0,
        "taxAssessedValue": 0,
        "latitude": 42.91093063354492,
        "longitude": -112.42507934570312
    },
    {
        "url": "https://www.zillow.com/homedetails/534-Canal-St-Pocatello-ID-83202/113843077_zpid/",
        "streetAddress": "534 Canal St",
        "yearBuilt": 1980,
        "sqrfSize": 2288,
        "lotSize": 11761,
        "lastSoldPrice": 0,
        "taxAssessedValue": 191793,
        "latitude": 42.927635192871094,
        "longitude": -112.47710418701172
    },
    {
        "url": "https://www.zillow.com/homedetails/13148-N-Hiline-Rd-Pocatello-ID-83202/242358698_zpid/",
        "streetAddress": "13148 N Hiline Rd",
        "yearBuilt": 1983,
        "sqrfSize": 1152,
        "lotSize": 44866,
        "lastSoldPrice": 0,
        "taxAssessedValue": 103326,
        "latitude": 42.95120620727539,
        "longitude": -112.45042419433594
    },
    {
        "url": "https://www.zillow.com/homedetails/5750-Sorrel-Dr-Pocatello-ID-83202/113833720_zpid/",
        "streetAddress": "5750 Sorrel Dr",
        "yearBuilt": 1963,
        "sqrfSize": 1824,
        "lotSize": 43560,
        "lastSoldPrice": 0,
        "taxAssessedValue": 204234,
        "latitude": 42.93833923339844,
        "longitude": -112.4737319946289
    },
    {
        "url": "https://www.zillow.com/homedetails/228-Noah-St-Chubbuck-ID-83202/113836879_zpid/",
        "streetAddress": "228 Noah St",
        "yearBuilt": 1993,
        "sqrfSize": 2334,
        "lotSize": 8712,
        "lastSoldPrice": 0,
        "taxAssessedValue": 266029,
        "latitude": 42.94207763671875,
        "longitude": -112.46959686279297
    },
    {
        "url": "https://www.zillow.com/homedetails/1415-Sawtooth-St-Pocatello-ID-83202/242361546_zpid/",
        "streetAddress": "1415 Sawtooth St",
        "yearBuilt": 2014,
        "sqrfSize": 3088,
        "lotSize": 8712,
        "lastSoldPrice": 0,
        "taxAssessedValue": 32161,
        "latitude": 42.91692352294922,
        "longitude": -112.49882507324219
    },
    {
        "url": "https://www.zillow.com/homedetails/13474-N-Yellowstone-Hwy-Chubbuck-ID-83202/242358716_zpid/",
        "streetAddress": "13474 N Yellowstone Hwy",
        "yearBuilt": 1999,
        "sqrfSize": 1456,
        "lotSize": 38768,
        "lastSoldPrice": 0,
        "taxAssessedValue": 126945,
        "latitude": 42.955875396728516,
        "longitude": -112.4660415649414
    },
    {
        "url": "https://www.zillow.com/homedetails/13755-S-Racoon-Dr-Pocatello-ID-83202/2070924128_zpid/",
        "streetAddress": "13755 S Racoon Dr",
        "yearBuilt": 2009,
        "sqrfSize": 1818,
        "lotSize": 241322,
        "lastSoldPrice": 0,
        "taxAssessedValue": 0,
        "latitude": 43.02634811401367,
        "longitude": -112.42778015136719
    },
    {
        "url": "https://www.zillow.com/homedetails/14774-W-Lacey-Rd-Pocatello-ID-83202/113838576_zpid/",
        "streetAddress": "14774 W Lacey Rd",
        "yearBuilt": 1975,
        "sqrfSize": 2156,
        "lotSize": 105415,
        "lastSoldPrice": 0,
        "taxAssessedValue": 230141,
        "latitude": 42.94140625,
        "longitude": -112.51133728027344
    },
    {
        "url": "https://www.zillow.com/homedetails/4660-Hawthorne-Rd-Pocatello-ID-83202/242359257_zpid/",
        "streetAddress": "4660 Hawthorne Rd",
        "yearBuilt": 1985,
        "sqrfSize": 2688,
        "lotSize": 16552,
        "lastSoldPrice": 0,
        "taxAssessedValue": 162185,
        "latitude": 42.91862869262695,
        "longitude": -112.4758071899414
    },
    {
        "url": "https://www.zillow.com/homedetails/5012-Yellowstone-Ave-Chubbuck-ID-83202/242359180_zpid/",
        "streetAddress": "5012 Yellowstone Ave",
        "yearBuilt": "Unknown",
        "sqrfSize": 0,
        "lotSize": 83635,
        "lastSoldPrice": 0,
        "taxAssessedValue": 285752,
        "latitude": 42.92445373535156,
        "longitude": -112.46538543701172
    },
    {
        "url": "https://www.zillow.com/homedetails/713-N-Johnson-Ave-Pocatello-ID-83204/222810389_zpid/",
        "streetAddress": "713 N Johnson Ave",
        "yearBuilt": 1880,
        "sqrfSize": 748,
        "lotSize": 6316,
        "lastSoldPrice": 0,
        "taxAssessedValue": 82486,
        "latitude": 42.86343002319336,
        "longitude": -112.46147155761719
    },
    {
        "url": "https://www.zillow.com/homedetails/5274-W-Old-Highway-91-Pocatello-ID-83204/2070254784_zpid/",
        "streetAddress": "5274 W Old Highway 91",
        "yearBuilt": 2019,
        "sqrfSize": 3704,
        "lotSize": 65340,
        "lastSoldPrice": 0,
        "taxAssessedValue": 0,
        "latitude": 42.79658126831055,
        "longitude": -112.32735443115234
    },
    {
        "url": "https://www.zillow.com/homedetails/9536-Katie-Mountain-Rd-Pocatello-ID-83204/2070406174_zpid/",
        "streetAddress": "9536 Katie Mountain Rd",
        "yearBuilt": 1979,
        "sqrfSize": 4172,
        "lotSize": 104979,
        "lastSoldPrice": 0,
        "taxAssessedValue": 0,
        "latitude": 42.746883392333984,
        "longitude": -112.60596466064453
    },
    {
        "url": "https://www.zillow.com/homedetails/LOT-5-S-Grant-Ave-5-Pocatello-ID-83204/2073686526_zpid/",
        "streetAddress": "LOT 5 S Grant Ave #5",
        "yearBuilt": "Unknown",
        "sqrfSize": 0,
        "lotSize": 60983,
        "lastSoldPrice": 0,
        "taxAssessedValue": 0,
        "latitude": 42.858184814453125,
        "longitude": -112.45362854003906
    },
    {
        "url": "https://www.zillow.com/homedetails/LOT-7-S-Grant-Ave-7-Pocatello-ID-83204/2073686995_zpid/",
        "streetAddress": "LOT 7 S Grant Ave #7",
        "yearBuilt": "Unknown",
        "sqrfSize": 0,
        "lotSize": 121967,
        "lastSoldPrice": 0,
        "taxAssessedValue": 0,
        "latitude": 42.858184814453125,
        "longitude": -112.45362854003906
    },
    {
        "url": "https://www.zillow.com/homedetails/LOT-6-S-Grant-Ave-6-Pocatello-ID-83204/2073686762_zpid/",
        "streetAddress": "LOT 6 S Grant Ave #6",
        "yearBuilt": "Unknown",
        "sqrfSize": 0,
        "lotSize": 56628,
        "lastSoldPrice": 0,
        "taxAssessedValue": 0,
        "latitude": 42.858184814453125,
        "longitude": -112.45362854003906
    },
    {
        "url": "https://www.zillow.com/homedetails/LOT-4-S-Grant-Ave-4-Pocatello-ID-83204/2073686527_zpid/",
        "streetAddress": "LOT 4 S Grant Ave #4",
        "yearBuilt": "Unknown",
        "sqrfSize": 0,
        "lotSize": 56628,
        "lastSoldPrice": 0,
        "taxAssessedValue": 0,
        "latitude": 42.858184814453125,
        "longitude": -112.45362854003906
    },
    {
        "url": "https://www.zillow.com/homedetails/525-W-Greeley-St-Pocatello-ID-83204/113843139_zpid/",
        "streetAddress": "525 W Greeley St",
        "yearBuilt": 1940,
        "sqrfSize": 864,
        "lotSize": 3049,
        "lastSoldPrice": 0,
        "taxAssessedValue": 79830,
        "latitude": 42.86868667602539,
        "longitude": -112.46251678466797
    },
    {
        "url": "https://www.zillow.com/homedetails/1340-Cedar-Lake-Rd-Pocatello-ID-83204/243022717_zpid/",
        "streetAddress": "1340 Cedar Lake Rd",
        "yearBuilt": 1983,
        "sqrfSize": 3986,
        "lotSize": 40510,
        "lastSoldPrice": 0,
        "taxAssessedValue": 26443,
        "latitude": 42.82606887817383,
        "longitude": -112.42668151855469
    },
    {
        "url": "https://www.zillow.com/homedetails/1437-N-Arthur-Ave-Pocatello-ID-83204/113841270_zpid/",
        "streetAddress": "1437 N Arthur Ave",
        "yearBuilt": 1930,
        "sqrfSize": 1728,
        "lotSize": 2613,
        "lastSoldPrice": 0,
        "taxAssessedValue": 90202,
        "latitude": 42.87137222290039,
        "longitude": -112.46382141113281
    },
    {
        "url": "https://www.zillow.com/homedetails/3578-Wild-Mountain-Rd-Pocatello-ID-83204/113829387_zpid/",
        "streetAddress": "3578 Wild Mountain Rd",
        "yearBuilt": 2003,
        "sqrfSize": 2693,
        "lotSize": 44431,
        "lastSoldPrice": 0,
        "taxAssessedValue": 369495,
        "latitude": 42.829769134521484,
        "longitude": -112.43122863769531
    },
    {
        "url": "https://www.zillow.com/homedetails/845-Barton-Rd-28-Pocatello-ID-83204/252207709_zpid/",
        "streetAddress": "845 Barton Rd #28",
        "yearBuilt": 1998,
        "sqrfSize": 1144,
        "lotSize": 0,
        "lastSoldPrice": 0,
        "taxAssessedValue": 22777,
        "latitude": 42.850406646728516,
        "longitude": -112.420166015625
    },
    {
        "url": "https://www.zillow.com/homedetails/4670-Kim-Dr-Pocatello-ID-83204/113836701_zpid/",
        "streetAddress": "4670 Kim Dr",
        "yearBuilt": 2000,
        "sqrfSize": 4696,
        "lotSize": 453895,
        "lastSoldPrice": 0,
        "taxAssessedValue": 520407,
        "latitude": 42.818939208984375,
        "longitude": -112.42728424072266
    },
    {
        "url": "https://www.zillow.com/homedetails/Connard-Pocatello-ID-83204/2085960228_zpid/",
        "streetAddress": "Connard",
        "yearBuilt": "Unknown",
        "sqrfSize": 0,
        "lotSize": 8276,
        "lastSoldPrice": 0,
        "taxAssessedValue": 0,
        "latitude": 42.84453582763672,
        "longitude": -112.41101837158203
    },
    {
        "url": "https://www.zillow.com/homedetails/2830-N-Blackrock-Rd-Pocatello-ID-83204/2072002412_zpid/",
        "streetAddress": "2830 N Blackrock Rd",
        "yearBuilt": 1997,
        "sqrfSize": 3387,
        "lotSize": 328006,
        "lastSoldPrice": 0,
        "taxAssessedValue": 0,
        "latitude": 42.79570388793945,
        "longitude": -112.3290023803711
    },
    {
        "url": "https://www.zillow.com/homedetails/S-5th-Ave-Pocatello-ID-83204/2079684493_zpid/",
        "streetAddress": "S 5th Ave",
        "yearBuilt": "Unknown",
        "sqrfSize": 0,
        "lotSize": 60983,
        "lastSoldPrice": 0,
        "taxAssessedValue": 0,
        "latitude": 42.8468132019043,
        "longitude": -112.42071533203125
    },
    {
        "url": "https://www.zillow.com/homedetails/LOT-7-S-Grant-Ave-Pocatello-ID-83204/2073691418_zpid/",
        "streetAddress": "LOT 7 S Grant Ave",
        "yearBuilt": "Unknown",
        "sqrfSize": 0,
        "lotSize": 121967,
        "lastSoldPrice": 0,
        "taxAssessedValue": 0,
        "latitude": 42.858184814453125,
        "longitude": -112.45362854003906
    },
    {
        "url": "https://www.zillow.com/homedetails/LOT-6-S-Grant-Ave-Pocatello-ID-83204/2073691594_zpid/",
        "streetAddress": "LOT 6 S Grant Ave",
        "yearBuilt": "Unknown",
        "sqrfSize": 0,
        "lotSize": 56628,
        "lastSoldPrice": 0,
        "taxAssessedValue": 0,
        "latitude": 42.858184814453125,
        "longitude": -112.45362854003906
    },
    {
        "url": "https://www.zillow.com/homedetails/LOT-5-S-Grant-Ave-Pocatello-ID-83204/2073691850_zpid/",
        "streetAddress": "LOT 5 S Grant Ave",
        "yearBuilt": "Unknown",
        "sqrfSize": 0,
        "lotSize": 60983,
        "lastSoldPrice": 0,
        "taxAssessedValue": 0,
        "latitude": 42.858184814453125,
        "longitude": -112.45362854003906
    },
    {
        "url": "https://www.zillow.com/homedetails/LOT-4-S-Grant-Ave-Pocatello-ID-83204/2073692111_zpid/",
        "streetAddress": "LOT 4 S Grant Ave",
        "yearBuilt": "Unknown",
        "sqrfSize": 0,
        "lotSize": 56628,
        "lastSoldPrice": 0,
        "taxAssessedValue": 0,
        "latitude": 42.858184814453125,
        "longitude": -112.45362854003906
    },
    {
        "url": "https://www.zillow.com/homedetails/1150-N-Batiste-Rd-Pocatello-ID-83204/2076613371_zpid/",
        "streetAddress": "1150 N Batiste Rd",
        "yearBuilt": "Unknown",
        "sqrfSize": 0,
        "lotSize": 3210372,
        "lastSoldPrice": 0,
        "taxAssessedValue": 0,
        "latitude": 42.9137077331543,
        "longitude": -112.52774047851562
    },
    {
        "url": "https://www.zillow.com/homedetails/5-Champlaine-St-Pocatello-ID-83204/2076677916_zpid/",
        "streetAddress": "5 Champlaine St",
        "yearBuilt": "Unknown",
        "sqrfSize": 0,
        "lotSize": 18295,
        "lastSoldPrice": 0,
        "taxAssessedValue": 0,
        "latitude": 42.86902618408203,
        "longitude": -112.47481536865234
    },
    {
        "url": "https://www.zillow.com/homedetails/233-N-Main-St-SUITE-B-Pocatello-ID-83204/2076599965_zpid/",
        "streetAddress": "233 N Main St SUITE B",
        "yearBuilt": "Unknown",
        "sqrfSize": 2000,
        "lotSize": 0,
        "lastSoldPrice": 0,
        "taxAssessedValue": 0,
        "latitude": 42.86305618286133,
        "longitude": -112.45198822021484
    },
    {
        "url": "https://www.zillow.com/homedetails/355-S-2-E-Aberdeen-ID-83210/121686277_zpid/",
        "streetAddress": "355 S 2 E",
        "yearBuilt": 1942,
        "sqrfSize": 1246,
        "lotSize": 20000,
        "lastSoldPrice": 0,
        "taxAssessedValue": 43593,
        "latitude": 42.94038772583008,
        "longitude": -112.84146881103516
    },
    {
        "url": "https://www.zillow.com/homedetails/1198-S-3000-W-Aberdeen-ID-83210/113284621_zpid/",
        "streetAddress": "1198 S 3000 W",
        "yearBuilt": "Unknown",
        "sqrfSize": 0,
        "lotSize": 237400,
        "lastSoldPrice": 0,
        "taxAssessedValue": 26258,
        "latitude": 43.02463150024414,
        "longitude": -112.88670349121094
    },
    {
        "url": "https://www.zillow.com/homedetails/1240-S-2600-W-Sterling-ID-83210/121686563_zpid/",
        "streetAddress": "1240 S 2600 W",
        "yearBuilt": 1961,
        "sqrfSize": 966,
        "lotSize": 86858,
        "lastSoldPrice": 0,
        "taxAssessedValue": 69243,
        "latitude": 43.018653869628906,
        "longitude": -112.80956268310547
    },
    {
        "url": "https://www.zillow.com/homedetails/2919-Sunbeam-Rd-American-Falls-ID-83211/104660361_zpid/",
        "streetAddress": "2919 Sunbeam Rd",
        "yearBuilt": 1976,
        "sqrfSize": 2688,
        "lotSize": 294030,
        "lastSoldPrice": 0,
        "taxAssessedValue": 199870,
        "latitude": 42.773536682128906,
        "longitude": -112.84873962402344
    },
    {
        "url": "https://www.zillow.com/homedetails/825-Tyhee-Ave-American-Falls-ID-83211/2071910565_zpid/",
        "streetAddress": "825 Tyhee Ave",
        "yearBuilt": 1993,
        "sqrfSize": 3954,
        "lotSize": 15681,
        "lastSoldPrice": 0,
        "taxAssessedValue": 0,
        "latitude": 42.7791633605957,
        "longitude": -112.85438537597656
    },
    {
        "url": "https://www.zillow.com/homedetails/480-Arthur-St-American-Falls-ID-83211/113860596_zpid/",
        "streetAddress": "480 Arthur St",
        "yearBuilt": 1972,
        "sqrfSize": 980,
        "lotSize": 10018,
        "lastSoldPrice": 0,
        "taxAssessedValue": 17250,
        "latitude": 42.77507019042969,
        "longitude": -112.8653564453125
    },
    {
        "url": "https://www.zillow.com/homedetails/520-Arthur-St-American-Falls-ID-83211/234173243_zpid/",
        "streetAddress": "520 Arthur St",
        "yearBuilt": "Unknown",
        "sqrfSize": 0,
        "lotSize": 18295,
        "lastSoldPrice": 0,
        "taxAssessedValue": 10310,
        "latitude": 42.774269104003906,
        "longitude": -112.86554718017578
    },
    {
        "url": "https://www.zillow.com/homedetails/Cedar-Ln-LOT-1-American-Falls-ID-83211/2082051678_zpid/",
        "streetAddress": "Cedar Ln LOT 1",
        "yearBuilt": "Unknown",
        "sqrfSize": 0,
        "lotSize": 114998,
        "lastSoldPrice": 0,
        "taxAssessedValue": 0,
        "latitude": 42.82755661010742,
        "longitude": -112.88819122314453
    },
    {
        "url": "https://www.zillow.com/homedetails/Cedar-Ln-LOT-4-American-Falls-ID-83211/2082050928_zpid/",
        "streetAddress": "Cedar Ln LOT 4",
        "yearBuilt": "Unknown",
        "sqrfSize": 0,
        "lotSize": 132422,
        "lastSoldPrice": 0,
        "taxAssessedValue": 0,
        "latitude": 42.82755661010742,
        "longitude": -112.88819122314453
    },
    {
        "url": "https://www.zillow.com/homedetails/Cedar-Ln-LOT-2-American-Falls-ID-83211/2082051199_zpid/",
        "streetAddress": "Cedar Ln LOT 2",
        "yearBuilt": "Unknown",
        "sqrfSize": 0,
        "lotSize": 143748,
        "lastSoldPrice": 0,
        "taxAssessedValue": 0,
        "latitude": 42.82612609863281,
        "longitude": -112.88508605957031
    },
    {
        "url": "https://www.zillow.com/homedetails/Cedar-Ln-LOT-9-American-Falls-ID-83211/2082049793_zpid/",
        "streetAddress": "Cedar Ln LOT 9",
        "yearBuilt": "Unknown",
        "sqrfSize": 0,
        "lotSize": 147668,
        "lastSoldPrice": 0,
        "taxAssessedValue": 0,
        "latitude": 42.82755661010742,
        "longitude": -112.88819122314453
    },
    {
        "url": "https://www.zillow.com/homedetails/Cedar-Ln-LOT-8-American-Falls-ID-83211/2082049947_zpid/",
        "streetAddress": "Cedar Ln LOT 8",
        "yearBuilt": 2020,
        "sqrfSize": 3207,
        "lotSize": 124146,
        "lastSoldPrice": 0,
        "taxAssessedValue": 0,
        "latitude": 42.82755661010742,
        "longitude": -112.88819122314453
    },
    {
        "url": "https://www.zillow.com/homedetails/Cedar-Ln-LOT-5-American-Falls-ID-83211/2082050485_zpid/",
        "streetAddress": "Cedar Ln LOT 5",
        "yearBuilt": 2020,
        "sqrfSize": 3587,
        "lotSize": 131986,
        "lastSoldPrice": 0,
        "taxAssessedValue": 0,
        "latitude": 42.82755661010742,
        "longitude": -112.88819122314453
    },
    {
        "url": "https://www.zillow.com/homedetails/Highway-Dr-Arco-ID-83213/2079550353_zpid/",
        "streetAddress": "Highway Dr",
        "yearBuilt": "Unknown",
        "sqrfSize": 0,
        "lotSize": 77101,
        "lastSoldPrice": 0,
        "taxAssessedValue": 0,
        "latitude": 43.62373352050781,
        "longitude": -113.28096771240234
    },
    {
        "url": "https://www.zillow.com/homedetails/327-Lost-River-Ave-Arco-ID-83213/2070918771_zpid/",
        "streetAddress": "327 Lost River Ave",
        "yearBuilt": 1920,
        "sqrfSize": 976,
        "lotSize": 7405,
        "lastSoldPrice": 0,
        "taxAssessedValue": 0,
        "latitude": 43.63557815551758,
        "longitude": -113.3040542602539
    },
    {
        "url": "https://www.zillow.com/homedetails/2222-N-2900-W-Arco-ID-83213/2071501382_zpid/",
        "streetAddress": "2222 N 2900 W",
        "yearBuilt": "Unknown",
        "sqrfSize": 0,
        "lotSize": 217800,
        "lastSoldPrice": 0,
        "taxAssessedValue": 0,
        "latitude": 43.60015869140625,
        "longitude": -113.27677917480469
    },
    {
        "url": "https://www.zillow.com/homedetails/9999-Blattner-Ln-Arco-ID-83213/2071559841_zpid/",
        "streetAddress": "9999 Blattner Ln",
        "yearBuilt": "Unknown",
        "sqrfSize": 0,
        "lotSize": 1573909,
        "lastSoldPrice": 0,
        "taxAssessedValue": 0,
        "latitude": 43.63212203979492,
        "longitude": -113.31414794921875
    },
    {
        "url": "https://www.zillow.com/homedetails/318-Grand-Ave-Arco-ID-83213/2073087968_zpid/",
        "streetAddress": "318 Grand Ave",
        "yearBuilt": 1978,
        "sqrfSize": 1100,
        "lotSize": 8712,
        "lastSoldPrice": 0,
        "taxAssessedValue": 0,
        "latitude": 43.63465881347656,
        "longitude": -113.30320739746094
    },
    {
        "url": "https://www.zillow.com/homedetails/1634-W-Arimo-Rd-Arimo-ID-83214/117851061_zpid/",
        "streetAddress": "1634 W Arimo Rd",
        "yearBuilt": 2008,
        "sqrfSize": 2000,
        "lotSize": 1253221,
        "lastSoldPrice": 0,
        "taxAssessedValue": 194268,
        "latitude": 42.579978942871094,
        "longitude": -112.26243591308594
    },
    {
        "url": "https://www.zillow.com/homedetails/W-Sublette-Rd-Arimo-ID-83214/2080028108_zpid/",
        "streetAddress": "W Sublette Rd",
        "yearBuilt": "Unknown",
        "sqrfSize": 0,
        "lotSize": 8102160,
        "lastSoldPrice": 0,
        "taxAssessedValue": 0,
        "latitude": 42.55430603027344,
        "longitude": -112.17797088623047
    },
    {
        "url": "https://www.zillow.com/homedetails/1764-N-2650-W-Atomic-City-ID-83215/121685460_zpid/",
        "streetAddress": "1764 N 2650 W",
        "yearBuilt": 1958,
        "sqrfSize": 1316,
        "lotSize": 33105,
        "lastSoldPrice": 0,
        "taxAssessedValue": 32510,
        "latitude": 43.44454574584961,
        "longitude": -112.81195068359375
    },
    {
        "url": "https://www.zillow.com/homedetails/LOT-6-Yukon-Dr-Bancroft-ID-83217/2070311235_zpid/",
        "streetAddress": "LOT 6 Yukon Dr",
        "yearBuilt": "Unknown",
        "sqrfSize": 0,
        "lotSize": 94525,
        "lastSoldPrice": 0,
        "taxAssessedValue": 0,
        "latitude": 42.76640701293945,
        "longitude": -112.08487701416016
    },
    {
        "url": "https://www.zillow.com/homedetails/1966-Oregon-Trail-Rd-Bancroft-ID-83217/115514084_zpid/",
        "streetAddress": "1966 Oregon Trail Rd",
        "yearBuilt": 1996,
        "sqrfSize": 1665,
        "lotSize": 1306800,
        "lastSoldPrice": 0,
        "taxAssessedValue": 133527,
        "latitude": 42.691043853759766,
        "longitude": -111.7471694946289
    },
    {
        "url": "https://www.zillow.com/homedetails/1847-Central-Rd-Bancroft-ID-83217/115514179_zpid/",
        "streetAddress": "1847 Central Rd",
        "yearBuilt": 1902,
        "sqrfSize": 1412,
        "lotSize": 95832,
        "lastSoldPrice": 0,
        "taxAssessedValue": 39779,
        "latitude": 42.63388442993164,
        "longitude": -111.76960754394531
    },
    {
        "url": "https://www.zillow.com/homedetails/0-Bare-Ground-Bancroft-ID-83217/2070612214_zpid/",
        "streetAddress": "0 Bare Ground",
        "yearBuilt": "Unknown",
        "sqrfSize": 0,
        "lotSize": 845063,
        "lastSoldPrice": 0,
        "taxAssessedValue": 0,
        "latitude": 42.80534744262695,
        "longitude": -111.93536376953125
    },
    {
        "url": "https://www.zillow.com/homedetails/LOT-38-Caribou-Cir-Bancroft-ID-83217/2070584729_zpid/",
        "streetAddress": "LOT 38 Caribou Cir",
        "yearBuilt": "Unknown",
        "sqrfSize": 0,
        "lotSize": 43560,
        "lastSoldPrice": 0,
        "taxAssessedValue": 0,
        "latitude": 42.80534744262695,
        "longitude": -111.93536376953125
    },
    {
        "url": "https://www.zillow.com/homedetails/100-Hatch-Loop-Bancroft-ID-83217/2071194289_zpid/",
        "streetAddress": "100 Hatch Loop",
        "yearBuilt": "Unknown",
        "sqrfSize": 0,
        "lotSize": 3484800,
        "lastSoldPrice": 0,
        "taxAssessedValue": 0,
        "latitude": 42.822940826416016,
        "longitude": -111.87078857421875
    },
    {
        "url": "https://www.zillow.com/homedetails/1999-Lewis-Ln-4-Bancroft-ID-83217/2075307438_zpid/",
        "streetAddress": "1999 Lewis Ln #4",
        "yearBuilt": "Unknown",
        "sqrfSize": 0,
        "lotSize": 2330460,
        "lastSoldPrice": 0,
        "taxAssessedValue": 0,
        "latitude": 42.71770477294922,
        "longitude": -111.88179779052734
    },
    {
        "url": "https://www.zillow.com/homedetails/1643-Lund-Rd-Bancroft-ID-83217/2078686732_zpid/",
        "streetAddress": "1643 Lund Rd",
        "yearBuilt": "Unknown",
        "sqrfSize": 0,
        "lotSize": 2657160,
        "lastSoldPrice": 0,
        "taxAssessedValue": 0,
        "latitude": 42.65269088745117,
        "longitude": -111.8873519897461
    },
    {
        "url": "https://www.zillow.com/homedetails/1550-Buckskin-Rd-Bancroft-ID-83217/115514096_zpid/",
        "streetAddress": "1550 Buckskin Rd",
        "yearBuilt": 1994,
        "sqrfSize": 4612,
        "lotSize": 261360,
        "lastSoldPrice": 0,
        "taxAssessedValue": 269343,
        "latitude": 42.6392936706543,
        "longitude": -111.87615966796875
    },
    {
        "url": "https://www.zillow.com/homedetails/275-S-900-W-Blackfoot-ID-83221/113284237_zpid/",
        "streetAddress": "275 S 900 W",
        "yearBuilt": 1994,
        "sqrfSize": 4506,
        "lotSize": 5934178,
        "lastSoldPrice": 0,
        "taxAssessedValue": 485847,
        "latitude": 43.158626556396484,
        "longitude": -112.46957397460938
    },
    {
        "url": "https://www.zillow.com/homedetails/163-N-725-W-Blackfoot-ID-83221/228890887_zpid/",
        "streetAddress": "163 N 725 W",
        "yearBuilt": 1945,
        "sqrfSize": 1647,
        "lotSize": 14374,
        "lastSoldPrice": 0,
        "taxAssessedValue": 103972,
        "latitude": 43.22132110595703,
        "longitude": -112.43932342529297
    },
    {
        "url": "https://www.zillow.com/homedetails/701-W-200-N-Blackfoot-ID-83221/121685275_zpid/",
        "streetAddress": "701 W 200 N",
        "yearBuilt": 1943,
        "sqrfSize": 2000,
        "lotSize": 43560,
        "lastSoldPrice": 0,
        "taxAssessedValue": 105392,
        "latitude": 43.22581481933594,
        "longitude": -112.43511962890625
    },
    {
        "url": "https://www.zillow.com/homedetails/539-W-300-N-Blackfoot-ID-83221/113284838_zpid/",
        "streetAddress": "539 W 300 N",
        "yearBuilt": 1981,
        "sqrfSize": 2636,
        "lotSize": 201247,
        "lastSoldPrice": 0,
        "taxAssessedValue": 92143,
        "latitude": 43.23736572265625,
        "longitude": -112.40235137939453
    },
    {
        "url": "https://www.zillow.com/homedetails/184-N-760-W-Blackfoot-ID-83221/121684559_zpid/",
        "streetAddress": "184 N 760 W",
        "yearBuilt": 1966,
        "sqrfSize": 3360,
        "lotSize": 217800,
        "lastSoldPrice": 0,
        "taxAssessedValue": 277534,
        "latitude": 43.22402572631836,
        "longitude": -112.44856262207031
    },
    {
        "url": "https://www.zillow.com/homedetails/1345-W-Center-St-Blackfoot-ID-83221/121686916_zpid/",
        "streetAddress": "1345 W Center St",
        "yearBuilt": 1953,
        "sqrfSize": 2856,
        "lotSize": 23958,
        "lastSoldPrice": 0,
        "taxAssessedValue": 149499,
        "latitude": 43.1878662109375,
        "longitude": -112.36774444580078
    },
    {
        "url": "https://www.zillow.com/homedetails/675-S-Adams-Ave-Blackfoot-ID-83221/113282321_zpid/",
        "streetAddress": "675 S Adams Ave",
        "yearBuilt": 1959,
        "sqrfSize": 3725,
        "lotSize": 8712,
        "lastSoldPrice": 0,
        "taxAssessedValue": 201345,
        "latitude": 43.180274963378906,
        "longitude": -112.34410858154297
    },
    {
        "url": "https://www.zillow.com/homedetails/241-E-350-N-Blackfoot-ID-83221/243802418_zpid/",
        "streetAddress": "241 E 350 N",
        "yearBuilt": 2017,
        "sqrfSize": 760,
        "lotSize": 260053,
        "lastSoldPrice": 0,
        "taxAssessedValue": 23500,
        "latitude": 43.246700286865234,
        "longitude": -112.251953125
    },
    {
        "url": "https://www.zillow.com/homedetails/1245-Lyn-Dr-Blackfoot-ID-83221/119384907_zpid/",
        "streetAddress": "1245 Lyn Dr",
        "yearBuilt": 1994,
        "sqrfSize": 3732,
        "lotSize": 18295,
        "lastSoldPrice": 0,
        "taxAssessedValue": 244180,
        "latitude": 43.17462921142578,
        "longitude": -112.34062957763672
    },
    {
        "url": "https://www.zillow.com/homedetails/817-Harborside-Loop-Blackfoot-ID-83221/2075628903_zpid/",
        "streetAddress": "817 Harborside Loop",
        "yearBuilt": 2021,
        "sqrfSize": 1605,
        "lotSize": 7405,
        "lastSoldPrice": 0,
        "taxAssessedValue": 0,
        "latitude": 43.2025260925293,
        "longitude": -112.35201263427734
    },
    {
        "url": "https://www.zillow.com/homedetails/255-Jones-St-Blackfoot-ID-83221/104610399_zpid/",
        "streetAddress": "255 Jones St",
        "yearBuilt": 1970,
        "sqrfSize": 2295,
        "lotSize": 24393,
        "lastSoldPrice": 0,
        "taxAssessedValue": 36988,
        "latitude": 43.197410583496094,
        "longitude": -112.33816528320312
    },
    {
        "url": "https://www.zillow.com/homedetails/380-N-1200-W-Blackfoot-ID-83221/104609390_zpid/",
        "streetAddress": "380 N 1200 W",
        "yearBuilt": 1973,
        "sqrfSize": 980,
        "lotSize": 217800,
        "lastSoldPrice": 0,
        "taxAssessedValue": 19148,
        "latitude": 43.25313186645508,
        "longitude": -112.53573608398438
    },
    {
        "url": "https://www.zillow.com/homedetails/1024-Parkway-Dr-Blackfoot-ID-83221/104609509_zpid/",
        "streetAddress": "1024 Parkway Dr",
        "yearBuilt": "Unknown",
        "sqrfSize": 0,
        "lotSize": 11325,
        "lastSoldPrice": 0,
        "taxAssessedValue": 17864,
        "latitude": 43.19770812988281,
        "longitude": -112.35429382324219
    },
    {
        "url": "https://www.zillow.com/homedetails/323-W-200-N-Blackfoot-ID-83221/113284693_zpid/",
        "streetAddress": "323 W 200 N",
        "yearBuilt": 1997,
        "sqrfSize": 4716,
        "lotSize": 219542,
        "lastSoldPrice": 0,
        "taxAssessedValue": 451947,
        "latitude": 43.22457504272461,
        "longitude": -112.36029815673828
    },
    {
        "url": "https://www.zillow.com/homedetails/1276-W-Hoff-Rd-Blackfoot-ID-83221/113282542_zpid/",
        "streetAddress": "1276 W Hoff Rd",
        "yearBuilt": 1920,
        "sqrfSize": 2396,
        "lotSize": 87120,
        "lastSoldPrice": 0,
        "taxAssessedValue": 133500,
        "latitude": 43.197731018066406,
        "longitude": -112.54988861083984
    },
    {
        "url": "https://www.zillow.com/homedetails/391-N-460-W-Blackfoot-ID-83221/121686448_zpid/",
        "streetAddress": "391 N 460 W",
        "yearBuilt": 2007,
        "sqrfSize": 4885,
        "lotSize": 187743,
        "lastSoldPrice": 0,
        "taxAssessedValue": 339860,
        "latitude": 43.253299713134766,
        "longitude": -112.38668060302734
    },
    {
        "url": "https://www.zillow.com/homedetails/63-N-200-E-Blackfoot-ID-83221/2116927505_zpid/",
        "streetAddress": "63 N 200 E",
        "yearBuilt": "Unknown",
        "sqrfSize": 0,
        "lotSize": 871200,
        "lastSoldPrice": 0,
        "taxAssessedValue": 0,
        "latitude": 43.20558547973633,
        "longitude": -112.25819396972656
    },
    {
        "url": "https://www.zillow.com/homedetails/418-W-270-N-Blackfoot-ID-83221/228890488_zpid/",
        "streetAddress": "418 W 270 N",
        "yearBuilt": 2015,
        "sqrfSize": 4240,
        "lotSize": 55756,
        "lastSoldPrice": 0,
        "taxAssessedValue": 357784,
        "latitude": 43.23564147949219,
        "longitude": -112.3780517578125
    },
    {
        "url": "https://www.zillow.com/homedetails/690-Pearl-Dr-Blackfoot-ID-83221/119384780_zpid/",
        "streetAddress": "690 Pearl Dr",
        "yearBuilt": 1980,
        "sqrfSize": 2338,
        "lotSize": 10454,
        "lastSoldPrice": 0,
        "taxAssessedValue": 154338,
        "latitude": 43.19838333129883,
        "longitude": -112.34838104248047
    },
    {
        "url": "https://www.zillow.com/homedetails/Tbd-Rich-Lane-Blackfoot-ID-83221/2092653937_zpid/",
        "streetAddress": "Tbd Rich Lane",
        "yearBuilt": "Unknown",
        "sqrfSize": 0,
        "lotSize": 50965,
        "lastSoldPrice": 0,
        "taxAssessedValue": 0,
        "latitude": 43.19687271118164,
        "longitude": -112.24662017822266
    },
    {
        "url": "https://www.zillow.com/homedetails/1282-Highland-Dr-Blackfoot-ID-83221/2088084106_zpid/",
        "streetAddress": "1282 Highland Dr",
        "yearBuilt": 1950,
        "sqrfSize": 4680,
        "lotSize": 37897,
        "lastSoldPrice": 0,
        "taxAssessedValue": 0,
        "latitude": 43.1978874206543,
        "longitude": -112.33609008789062
    },
    {
        "url": "https://www.zillow.com/homedetails/1651-E-Airport-Rd-Blackfoot-ID-83221/119384601_zpid/",
        "streetAddress": "1651 E Airport Rd",
        "yearBuilt": 1973,
        "sqrfSize": 5000,
        "lotSize": 120225,
        "lastSoldPrice": 0,
        "taxAssessedValue": 265884,
        "latitude": 43.20820999145508,
        "longitude": -112.3271484375
    },
    {
        "url": "https://www.zillow.com/homedetails/813-Harborside-Loop-Blackfoot-ID-83221/2072325855_zpid/",
        "streetAddress": "813 Harborside Loop",
        "yearBuilt": 2021,
        "sqrfSize": 1605,
        "lotSize": 7405,
        "lastSoldPrice": 0,
        "taxAssessedValue": 0,
        "latitude": 43.2025260925293,
        "longitude": -112.35201263427734
    },
    {
        "url": "https://www.zillow.com/homedetails/841-W-200-S-Blackfoot-ID-83221/2072344333_zpid/",
        "streetAddress": "841 W 200 S",
        "yearBuilt": "Unknown",
        "sqrfSize": 0,
        "lotSize": 159865,
        "lastSoldPrice": 0,
        "taxAssessedValue": 0,
        "latitude": 43.167877197265625,
        "longitude": -112.46212768554688
    },
    {
        "url": "https://www.zillow.com/homedetails/915-Lilac-St-Blackfoot-ID-83221/2074005584_zpid/",
        "streetAddress": "915 Lilac St",
        "yearBuilt": 2021,
        "sqrfSize": 1658,
        "lotSize": 6534,
        "lastSoldPrice": 0,
        "taxAssessedValue": 0,
        "latitude": 43.20148849487305,
        "longitude": -112.35079193115234
    },
    {
        "url": "https://www.zillow.com/homedetails/Rose-Rd-Blackfoot-ID-83221/2076752250_zpid/",
        "streetAddress": "Rose Rd",
        "yearBuilt": "Unknown",
        "sqrfSize": 0,
        "lotSize": 528295,
        "lastSoldPrice": 0,
        "taxAssessedValue": 0,
        "latitude": 43.2615852355957,
        "longitude": -112.32167053222656
    },
    {
        "url": "https://www.zillow.com/homedetails/2835-Teeples-Dr-Blackfoot-ID-83221/228884885_zpid/",
        "streetAddress": "2835 Teeples Dr",
        "yearBuilt": "Unknown",
        "sqrfSize": 0,
        "lotSize": 18730,
        "lastSoldPrice": 0,
        "taxAssessedValue": 49000,
        "latitude": 43.216915130615234,
        "longitude": -112.34386444091797
    },
    {
        "url": "https://www.zillow.com/homedetails/818-Harborside-Loop-Blackfoot-ID-83221/2076934423_zpid/",
        "streetAddress": "818 Harborside Loop",
        "yearBuilt": 2021,
        "sqrfSize": 1510,
        "lotSize": 5662,
        "lastSoldPrice": 0,
        "taxAssessedValue": 0,
        "latitude": 43.2025260925293,
        "longitude": -112.35201263427734
    },
    {
        "url": "https://www.zillow.com/homedetails/241-E-400-N-Blackfoot-ID-83221/104610496_zpid/",
        "streetAddress": "241 E 400 N",
        "yearBuilt": 1984,
        "sqrfSize": 1640,
        "lotSize": 191228,
        "lastSoldPrice": 0,
        "taxAssessedValue": 62574,
        "latitude": 43.25295639038086,
        "longitude": -112.24980926513672
    },
    {
        "url": "https://www.zillow.com/homedetails/Bl1-L6-N-Meridian-St-Blackfoot-ID-83221/2075228927_zpid/",
        "streetAddress": "Bl1 L6 N Meridian St",
        "yearBuilt": "Unknown",
        "sqrfSize": 0,
        "lotSize": 77536,
        "lastSoldPrice": 0,
        "taxAssessedValue": 0,
        "latitude": 43.349430084228516,
        "longitude": -112.59415435791016
    },
    {
        "url": "https://www.zillow.com/homedetails/430-Apex-Ln-Challis-ID-83226/115515124_zpid/",
        "streetAddress": "430 Apex Ln",
        "yearBuilt": 2005,
        "sqrfSize": 1188,
        "lotSize": 22215,
        "lastSoldPrice": 0,
        "taxAssessedValue": 72820,
        "latitude": 44.500892639160156,
        "longitude": -114.21694946289062
    },
    {
        "url": "https://www.zillow.com/homedetails/610-E-Valley-Ave-Challis-ID-83226/2103142950_zpid/",
        "streetAddress": "610 E Valley Ave",
        "yearBuilt": 1940,
        "sqrfSize": 799,
        "lotSize": 6229,
        "lastSoldPrice": 0,
        "taxAssessedValue": 0,
        "latitude": 44.54016876220703,
        "longitude": -114.24561309814453
    },
    {
        "url": "https://www.zillow.com/homedetails/129-Peregrine-Pl-Challis-ID-83226/242937782_zpid/",
        "streetAddress": "129 Peregrine Pl",
        "yearBuilt": 1982,
        "sqrfSize": 1152,
        "lotSize": 87991,
        "lastSoldPrice": 0,
        "taxAssessedValue": 57310,
        "latitude": 44.5477409362793,
        "longitude": -114.20271301269531
    },
    {
        "url": "https://www.zillow.com/homedetails/6-Homestead-Trl-Challis-ID-83226/2070509639_zpid/",
        "streetAddress": "6 Homestead Trl",
        "yearBuilt": "Unknown",
        "sqrfSize": 0,
        "lotSize": 630748,
        "lastSoldPrice": 0,
        "taxAssessedValue": 0,
        "latitude": 44.57401657104492,
        "longitude": -114.20231628417969
    },
    {
        "url": "https://www.zillow.com/homedetails/1030-Excelsior-Ln-Challis-ID-83226/242938028_zpid/",
        "streetAddress": "1030 Excelsior Ln",
        "yearBuilt": "Unknown",
        "sqrfSize": 0,
        "lotSize": 10890,
        "lastSoldPrice": 0,
        "taxAssessedValue": 12600,
        "latitude": 44.49967956542969,
        "longitude": -114.21842956542969
    },
    {
        "url": "https://www.zillow.com/homedetails/220-N-3rd-St-Challis-ID-83226/251083824_zpid/",
        "streetAddress": "220 N 3rd St",
        "yearBuilt": "Unknown",
        "sqrfSize": 0,
        "lotSize": 5793,
        "lastSoldPrice": 0,
        "taxAssessedValue": 45420,
        "latitude": 44.5062370300293,
        "longitude": -114.23681640625
    },
    {
        "url": "https://www.zillow.com/homedetails/Challis-ID-83226/2070913419_zpid/",
        "streetAddress": "(Undisclosed Address)",
        "yearBuilt": 1954,
        "sqrfSize": 1008,
        "lotSize": 0,
        "lastSoldPrice": 0,
        "taxAssessedValue": 0,
        "latitude": null,
        "longitude": null
    },
    {
        "url": "https://www.zillow.com/homedetails/13755-S-Racoon-Dr-Challis-ID-83226/2070924224_zpid/",
        "streetAddress": "13755 S Racoon Dr",
        "yearBuilt": 2009,
        "sqrfSize": 1818,
        "lotSize": 241322,
        "lastSoldPrice": 0,
        "taxAssessedValue": 0,
        "latitude": 44.33171463012695,
        "longitude": -114.00251007080078
    },
    {
        "url": "https://www.zillow.com/homedetails/175-Sunrise-Dr-Challis-ID-83226/242937335_zpid/",
        "streetAddress": "175 Sunrise Dr",
        "yearBuilt": "Unknown",
        "sqrfSize": 0,
        "lotSize": 52272,
        "lastSoldPrice": 0,
        "taxAssessedValue": 8050,
        "latitude": 44.51530456542969,
        "longitude": -114.2258071899414
    },
    {
        "url": "https://www.zillow.com/homedetails/LOT-4-Stephens-Gulch-Challis-ID-83226/2072578381_zpid/",
        "streetAddress": "LOT 4 Stephens Gulch",
        "yearBuilt": "Unknown",
        "sqrfSize": 0,
        "lotSize": 374616,
        "lastSoldPrice": 0,
        "taxAssessedValue": 0,
        "latitude": 44.33171463012695,
        "longitude": -114.00251007080078
    },
    {
        "url": "https://www.zillow.com/homedetails/1184-Garden-Creek-Rd-Challis-ID-83226/2072627706_zpid/",
        "streetAddress": "1184 Garden Creek Rd",
        "yearBuilt": 2014,
        "sqrfSize": 4372,
        "lotSize": 598950,
        "lastSoldPrice": 0,
        "taxAssessedValue": 0,
        "latitude": 44.506126403808594,
        "longitude": -114.2613296508789
    },
    {
        "url": "https://www.zillow.com/homedetails/120-Redbird-Ln-Challis-ID-83226/247432148_zpid/",
        "streetAddress": "120 Redbird Ln",
        "yearBuilt": "Unknown",
        "sqrfSize": 0,
        "lotSize": 10018,
        "lastSoldPrice": 0,
        "taxAssessedValue": 13610,
        "latitude": 44.49940490722656,
        "longitude": -114.22071075439453
    },
    {
        "url": "https://www.zillow.com/homedetails/130-Redbird-Ln-Challis-ID-83226/247432147_zpid/",
        "streetAddress": "130 Redbird Ln",
        "yearBuilt": "Unknown",
        "sqrfSize": 0,
        "lotSize": 11761,
        "lastSoldPrice": 0,
        "taxAssessedValue": 14900,
        "latitude": 44.499141693115234,
        "longitude": -114.22074127197266
    },
    {
        "url": "https://www.zillow.com/homedetails/210-Redbird-Ln-Challis-ID-83226/242938049_zpid/",
        "streetAddress": "210 Redbird Ln",
        "yearBuilt": "Unknown",
        "sqrfSize": 0,
        "lotSize": 11761,
        "lastSoldPrice": 0,
        "taxAssessedValue": 17170,
        "latitude": 44.49886703491211,
        "longitude": -114.22067260742188
    },
    {
        "url": "https://www.zillow.com/homedetails/911-Custer-St-Challis-ID-83226/247432143_zpid/",
        "streetAddress": "911 Custer St",
        "yearBuilt": "Unknown",
        "sqrfSize": 0,
        "lotSize": 11761,
        "lastSoldPrice": 0,
        "taxAssessedValue": 14850,
        "latitude": 44.49910354614258,
        "longitude": -114.22113800048828
    },
    {
        "url": "https://www.zillow.com/homedetails/921-Custer-St-Challis-ID-83226/247432144_zpid/",
        "streetAddress": "921 Custer St",
        "yearBuilt": "Unknown",
        "sqrfSize": 0,
        "lotSize": 11761,
        "lastSoldPrice": 0,
        "taxAssessedValue": 14850,
        "latitude": 44.49883270263672,
        "longitude": -114.22113800048828
    },
    {
        "url": "https://www.zillow.com/homedetails/831-Custer-St-Challis-ID-83226/247432142_zpid/",
        "streetAddress": "831 Custer St",
        "yearBuilt": "Unknown",
        "sqrfSize": 0,
        "lotSize": 11761,
        "lastSoldPrice": 0,
        "taxAssessedValue": 14850,
        "latitude": 44.4993782043457,
        "longitude": -114.22113800048828
    },
    {
        "url": "https://www.zillow.com/homedetails/510-Leesburg-Ln-Challis-ID-83226/242938042_zpid/",
        "streetAddress": "510 Leesburg Ln",
        "yearBuilt": "Unknown",
        "sqrfSize": 0,
        "lotSize": 11761,
        "lastSoldPrice": 0,
        "taxAssessedValue": 15900,
        "latitude": 44.49849319458008,
        "longitude": -114.219482421875
    },
    {
        "url": "https://www.zillow.com/homedetails/5950-Garden-Creek-Rd-Challis-ID-83226/247432293_zpid/",
        "streetAddress": "5950 Garden Creek Rd",
        "yearBuilt": 1980,
        "sqrfSize": 3200,
        "lotSize": 699747,
        "lastSoldPrice": 0,
        "taxAssessedValue": 83460,
        "latitude": 44.46865463256836,
        "longitude": -114.32804870605469
    },
    {
        "url": "https://www.zillow.com/homedetails/389-Wrangler-Ln-Challis-ID-83226/247473803_zpid/",
        "streetAddress": "389 Wrangler Ln",
        "yearBuilt": "Unknown",
        "sqrfSize": 2128,
        "lotSize": 4357306,
        "lastSoldPrice": 0,
        "taxAssessedValue": 127180,
        "latitude": 44.477622985839844,
        "longitude": -114.20053100585938
    },
    {
        "url": "https://www.zillow.com/homedetails/4755-Eastfork-Rd-Challis-ID-83227/251083769_zpid/",
        "streetAddress": "4755 Eastfork Rd",
        "yearBuilt": 2010,
        "sqrfSize": 836,
        "lotSize": 188179,
        "lastSoldPrice": 0,
        "taxAssessedValue": 94140,
        "latitude": 44.21487808227539,
        "longitude": -114.2780532836914
    },
    {
        "url": "https://www.zillow.com/homedetails/81-S-3rd-St-E-Downey-ID-83234/222797926_zpid/",
        "streetAddress": "81 S 3rd St E",
        "yearBuilt": 1930,
        "sqrfSize": 2123,
        "lotSize": 12632,
        "lastSoldPrice": 0,
        "taxAssessedValue": 74313,
        "latitude": 42.42765426635742,
        "longitude": -112.12098693847656
    },
    {
        "url": "https://www.zillow.com/homedetails/Tdb-S-Cambridge-Dr-Downey-ID-83234/2070611140_zpid/",
        "streetAddress": "Tdb S Cambridge Dr",
        "yearBuilt": "Unknown",
        "sqrfSize": 0,
        "lotSize": 217800,
        "lastSoldPrice": 0,
        "taxAssessedValue": 0,
        "latitude": 42.41017532348633,
        "longitude": -112.08938598632812
    },
    {
        "url": "https://www.zillow.com/homedetails/66-S-Main-St-Downey-ID-83234/242359534_zpid/",
        "streetAddress": "66 S Main St",
        "yearBuilt": 1980,
        "sqrfSize": 5712,
        "lotSize": 28314,
        "lastSoldPrice": 0,
        "taxAssessedValue": 3125,
        "latitude": 42.428104400634766,
        "longitude": -112.12396240234375
    },
    {
        "url": "https://www.zillow.com/homedetails/65-S-3rd-St-E-Downey-ID-83234/222797925_zpid/",
        "streetAddress": "65 S 3rd St E",
        "yearBuilt": 1930,
        "sqrfSize": 496,
        "lotSize": 6098,
        "lastSoldPrice": 0,
        "taxAssessedValue": 34034,
        "latitude": 42.427860260009766,
        "longitude": -112.12098693847656
    },
    {
        "url": "https://www.zillow.com/homedetails/17535-S-Old-Highway-91-Downey-ID-83234/113846504_zpid/",
        "streetAddress": "17535 S Old Highway 91",
        "yearBuilt": 1950,
        "sqrfSize": 2332,
        "lotSize": 10111147,
        "lastSoldPrice": 0,
        "taxAssessedValue": 239026,
        "latitude": 42.51243591308594,
        "longitude": -112.16358947753906
    },
    {
        "url": "https://www.zillow.com/homedetails/17757-S-Old-Highway-91-Downey-ID-83234/2071502786_zpid/",
        "streetAddress": "17757 S Old Highway 91",
        "yearBuilt": 2021,
        "sqrfSize": 0,
        "lotSize": 10646935,
        "lastSoldPrice": 0,
        "taxAssessedValue": 0,
        "latitude": 42.51180648803711,
        "longitude": -112.16278839111328
    },
    {
        "url": "https://www.zillow.com/homedetails/1201-Ellis-Creek-Rd-Challis-ID-83235/251083814_zpid/",
        "streetAddress": "1201 Ellis Creek Rd",
        "yearBuilt": "Unknown",
        "sqrfSize": 4280,
        "lotSize": 21126600,
        "lastSoldPrice": 0,
        "taxAssessedValue": 495090,
        "latitude": 44.69009017944336,
        "longitude": -114.06446838378906
    },
    {
        "url": "https://www.zillow.com/homedetails/860-E-600-N-Firth-ID-83236/104611373_zpid/",
        "streetAddress": "860 E 600 N",
        "yearBuilt": "Unknown",
        "sqrfSize": 0,
        "lotSize": 244371,
        "lastSoldPrice": 0,
        "taxAssessedValue": 56318,
        "latitude": 43.2826042175293,
        "longitude": -112.12503051757812
    },
    {
        "url": "https://www.zillow.com/homedetails/702-N-550-E-Firth-ID-83236/113285351_zpid/",
        "streetAddress": "702 N 550 E",
        "yearBuilt": 1975,
        "sqrfSize": 3080,
        "lotSize": 144140,
        "lastSoldPrice": 0,
        "taxAssessedValue": 239838,
        "latitude": 43.29775619506836,
        "longitude": -112.18865966796875
    },
    {
        "url": "https://www.zillow.com/homedetails/LOT-1-Sellers-Creek-Rd-Firth-ID-83236/2072058085_zpid/",
        "streetAddress": "LOT 1 Sellers Creek Rd",
        "yearBuilt": "Unknown",
        "sqrfSize": 0,
        "lotSize": 91476,
        "lastSoldPrice": 0,
        "taxAssessedValue": 0,
        "latitude": 43.269195556640625,
        "longitude": -111.82305145263672
    },
    {
        "url": "https://www.zillow.com/homedetails/110-S-Main-St-Grace-ID-83241/304888486_zpid/",
        "streetAddress": "110 S Main St",
        "yearBuilt": 1930,
        "sqrfSize": 0,
        "lotSize": 3049,
        "lastSoldPrice": 0,
        "taxAssessedValue": 29040,
        "latitude": 42.57529830932617,
        "longitude": -111.73080444335938
    },
    {
        "url": "https://www.zillow.com/homedetails/35-Merrill-Way-Grace-ID-83241/2078616593_zpid/",
        "streetAddress": "35 Merrill Way",
        "yearBuilt": "Unknown",
        "sqrfSize": 0,
        "lotSize": 18730,
        "lastSoldPrice": 0,
        "taxAssessedValue": 0,
        "latitude": 42.57615661621094,
        "longitude": -111.71844482421875
    },
    {
        "url": "https://www.zillow.com/homedetails/LOT-38-Diane-Dr-Grace-ID-83241/2078616664_zpid/",
        "streetAddress": "LOT 38 Diane Dr",
        "yearBuilt": "Unknown",
        "sqrfSize": 0,
        "lotSize": 18730,
        "lastSoldPrice": 0,
        "taxAssessedValue": 0,
        "latitude": 42.51765823364258,
        "longitude": -111.75686645507812
    },
    {
        "url": "https://www.zillow.com/homedetails/LOT-17-Diane-Dr-Grace-ID-83241/2078616655_zpid/",
        "streetAddress": "LOT 17 Diane Dr",
        "yearBuilt": "Unknown",
        "sqrfSize": 0,
        "lotSize": 27007,
        "lastSoldPrice": 0,
        "taxAssessedValue": 0,
        "latitude": 42.51765823364258,
        "longitude": -111.75686645507812
    },
    {
        "url": "https://www.zillow.com/homedetails/37-Merrill-Way-Grace-ID-83241/2078616571_zpid/",
        "streetAddress": "37 Merrill Way",
        "yearBuilt": "Unknown",
        "sqrfSize": 0,
        "lotSize": 18730,
        "lastSoldPrice": 0,
        "taxAssessedValue": 0,
        "latitude": 42.576133728027344,
        "longitude": -111.71844482421875
    },
    {
        "url": "https://www.zillow.com/homedetails/LOT-16-Diane-Dr-Grace-ID-83241/2078616665_zpid/",
        "streetAddress": "LOT 16 Diane Dr",
        "yearBuilt": "Unknown",
        "sqrfSize": 0,
        "lotSize": 27007,
        "lastSoldPrice": 0,
        "taxAssessedValue": 0,
        "latitude": 42.51765823364258,
        "longitude": -111.75686645507812
    },
    {
        "url": "https://www.zillow.com/homedetails/LOT-18-Diane-Dr-Grace-ID-83241/2078616654_zpid/",
        "streetAddress": "LOT 18 Diane Dr",
        "yearBuilt": "Unknown",
        "sqrfSize": 0,
        "lotSize": 27007,
        "lastSoldPrice": 0,
        "taxAssessedValue": 0,
        "latitude": 42.51765823364258,
        "longitude": -111.75686645507812
    },
    {
        "url": "https://www.zillow.com/homedetails/LOT-15-Diane-Dr-Grace-ID-83241/2078616623_zpid/",
        "streetAddress": "LOT 15 Diane Dr",
        "yearBuilt": "Unknown",
        "sqrfSize": 0,
        "lotSize": 32670,
        "lastSoldPrice": 0,
        "taxAssessedValue": 0,
        "latitude": 42.51765823364258,
        "longitude": -111.75686645507812
    },
    {
        "url": "https://www.zillow.com/homedetails/36-Merrill-Way-Grace-ID-83241/2078616570_zpid/",
        "streetAddress": "36 Merrill Way",
        "yearBuilt": "Unknown",
        "sqrfSize": 0,
        "lotSize": 18730,
        "lastSoldPrice": 0,
        "taxAssessedValue": 0,
        "latitude": 42.57614517211914,
        "longitude": -111.71844482421875
    },
    {
        "url": "https://www.zillow.com/homedetails/11-Merrill-Way-Grace-ID-83241/2078616493_zpid/",
        "streetAddress": "11 Merrill Way",
        "yearBuilt": "Unknown",
        "sqrfSize": 0,
        "lotSize": 25700,
        "lastSoldPrice": 0,
        "taxAssessedValue": 0,
        "latitude": 42.576412200927734,
        "longitude": -111.71843719482422
    },
    {
        "url": "https://www.zillow.com/homedetails/Diane-Dr-Grace-ID-83241/2077545896_zpid/",
        "streetAddress": "Diane Dr",
        "yearBuilt": "Unknown",
        "sqrfSize": 0,
        "lotSize": 46609,
        "lastSoldPrice": 0,
        "taxAssessedValue": 0,
        "latitude": 42.51765823364258,
        "longitude": -111.75686645507812
    },
    {
        "url": "https://www.zillow.com/homedetails/LOT-20-Diane-Dr-Grace-ID-83241/2078620034_zpid/",
        "streetAddress": "LOT 20 Diane Dr",
        "yearBuilt": "Unknown",
        "sqrfSize": 0,
        "lotSize": 14810,
        "lastSoldPrice": 0,
        "taxAssessedValue": 0,
        "latitude": 42.51765823364258,
        "longitude": -111.75686645507812
    },
    {
        "url": "https://www.zillow.com/homedetails/LOT-21-Diane-Dr-Grace-ID-83241/2078620033_zpid/",
        "streetAddress": "LOT 21 Diane Dr",
        "yearBuilt": "Unknown",
        "sqrfSize": 0,
        "lotSize": 14810,
        "lastSoldPrice": 0,
        "taxAssessedValue": 0,
        "latitude": 42.51765823364258,
        "longitude": -111.75686645507812
    },
    {
        "url": "https://www.zillow.com/homedetails/LOT-23-Diane-Dr-Grace-ID-83241/2078620086_zpid/",
        "streetAddress": "LOT 23 Diane Dr",
        "yearBuilt": "Unknown",
        "sqrfSize": 0,
        "lotSize": 14810,
        "lastSoldPrice": 0,
        "taxAssessedValue": 0,
        "latitude": 42.51765823364258,
        "longitude": -111.75686645507812
    },
    {
        "url": "https://www.zillow.com/homedetails/29-N-Mingo-Rd-Grace-ID-83241/2078620100_zpid/",
        "streetAddress": "29 N Mingo Rd",
        "yearBuilt": "Unknown",
        "sqrfSize": 0,
        "lotSize": 17424,
        "lastSoldPrice": 0,
        "taxAssessedValue": 0,
        "latitude": 42.57631301879883,
        "longitude": -111.7206039428711
    },
    {
        "url": "https://www.zillow.com/homedetails/LOT-25-Diane-Dr-Grace-ID-83241/2078620088_zpid/",
        "streetAddress": "LOT 25 Diane Dr",
        "yearBuilt": "Unknown",
        "sqrfSize": 0,
        "lotSize": 14374,
        "lastSoldPrice": 0,
        "taxAssessedValue": 0,
        "latitude": 42.51765823364258,
        "longitude": -111.75686645507812
    },
    {
        "url": "https://www.zillow.com/homedetails/33-N-Merrill-Way-Grace-ID-83241/2078620103_zpid/",
        "streetAddress": "33 N Merrill Way",
        "yearBuilt": "Unknown",
        "sqrfSize": 0,
        "lotSize": 17424,
        "lastSoldPrice": 0,
        "taxAssessedValue": 0,
        "latitude": 42.576175689697266,
        "longitude": -111.71844482421875
    },
    {
        "url": "https://www.zillow.com/homedetails/LOT-14-Diane-Dr-Grace-ID-83241/2078616706_zpid/",
        "streetAddress": "LOT 14 Diane Dr",
        "yearBuilt": "Unknown",
        "sqrfSize": 0,
        "lotSize": 13939,
        "lastSoldPrice": 0,
        "taxAssessedValue": 0,
        "latitude": 42.51765823364258,
        "longitude": -111.75686645507812
    },
    {
        "url": "https://www.zillow.com/homedetails/27-N-Mingo-Rd-Grace-ID-83241/2078620102_zpid/",
        "streetAddress": "27 N Mingo Rd",
        "yearBuilt": "Unknown",
        "sqrfSize": 0,
        "lotSize": 17424,
        "lastSoldPrice": 0,
        "taxAssessedValue": 0,
        "latitude": 42.57632827758789,
        "longitude": -111.7206039428711
    },
    {
        "url": "https://www.zillow.com/homedetails/26-N-Mingo-Rd-Grace-ID-83241/2078620095_zpid/",
        "streetAddress": "26 N Mingo Rd",
        "yearBuilt": "Unknown",
        "sqrfSize": 0,
        "lotSize": 17424,
        "lastSoldPrice": 0,
        "taxAssessedValue": 0,
        "latitude": 42.57633590698242,
        "longitude": -111.7206039428711
    },
    {
        "url": "https://www.zillow.com/homedetails/LOT-19-Diane-Dr-Grace-ID-83241/2078620029_zpid/",
        "streetAddress": "LOT 19 Diane Dr",
        "yearBuilt": "Unknown",
        "sqrfSize": 0,
        "lotSize": 34848,
        "lastSoldPrice": 0,
        "taxAssessedValue": 0,
        "latitude": 42.51765823364258,
        "longitude": -111.75686645507812
    },
    {
        "url": "https://www.zillow.com/homedetails/LOT-13-Diane-Dr-Grace-ID-83241/2078616710_zpid/",
        "streetAddress": "LOT 13 Diane Dr",
        "yearBuilt": "Unknown",
        "sqrfSize": 0,
        "lotSize": 14374,
        "lastSoldPrice": 0,
        "taxAssessedValue": 0,
        "latitude": 42.51765823364258,
        "longitude": -111.75686645507812
    },
    {
        "url": "https://www.zillow.com/homedetails/LOT-40-Diane-Dr-Grace-ID-83241/2078616675_zpid/",
        "streetAddress": "LOT 40 Diane Dr",
        "yearBuilt": "Unknown",
        "sqrfSize": 0,
        "lotSize": 18730,
        "lastSoldPrice": 0,
        "taxAssessedValue": 0,
        "latitude": 42.51765823364258,
        "longitude": -111.75686645507812
    },
    {
        "url": "https://www.zillow.com/homedetails/30-N-Merrill-Way-Grace-ID-83241/2078620124_zpid/",
        "streetAddress": "30 N Merrill Way",
        "yearBuilt": "Unknown",
        "sqrfSize": 0,
        "lotSize": 17424,
        "lastSoldPrice": 0,
        "taxAssessedValue": 0,
        "latitude": 42.57621383666992,
        "longitude": -111.71844482421875
    },
    {
        "url": "https://www.zillow.com/homedetails/31-N-Merrill-Way-Grace-ID-83241/2078620111_zpid/",
        "streetAddress": "31 N Merrill Way",
        "yearBuilt": "Unknown",
        "sqrfSize": 0,
        "lotSize": 17424,
        "lastSoldPrice": 0,
        "taxAssessedValue": 0,
        "latitude": 42.57619857788086,
        "longitude": -111.71844482421875
    },
    {
        "url": "https://www.zillow.com/homedetails/32-N-Merrill-Way-Grace-ID-83241/2078620107_zpid/",
        "streetAddress": "32 N Merrill Way",
        "yearBuilt": "Unknown",
        "sqrfSize": 0,
        "lotSize": 17424,
        "lastSoldPrice": 0,
        "taxAssessedValue": 0,
        "latitude": 42.57619094848633,
        "longitude": -111.71844482421875
    },
    {
        "url": "https://www.zillow.com/homedetails/28-N-Mingo-Rd-Grace-ID-83241/2078620101_zpid/",
        "streetAddress": "28 N Mingo Rd",
        "yearBuilt": "Unknown",
        "sqrfSize": 0,
        "lotSize": 17424,
        "lastSoldPrice": 0,
        "taxAssessedValue": 0,
        "latitude": 42.57632064819336,
        "longitude": -111.7206039428711
    },
    {
        "url": "https://www.zillow.com/homedetails/LOT-24-Diane-Dr-Grace-ID-83241/2078620085_zpid/",
        "streetAddress": "LOT 24 Diane Dr",
        "yearBuilt": "Unknown",
        "sqrfSize": 0,
        "lotSize": 14810,
        "lastSoldPrice": 0,
        "taxAssessedValue": 0,
        "latitude": 42.51765823364258,
        "longitude": -111.75686645507812
    },
    {
        "url": "https://www.zillow.com/homedetails/LOT-22-Diane-Dr-Grace-ID-83241/2078620081_zpid/",
        "streetAddress": "LOT 22 Diane Dr",
        "yearBuilt": "Unknown",
        "sqrfSize": 0,
        "lotSize": 14810,
        "lastSoldPrice": 0,
        "taxAssessedValue": 0,
        "latitude": 42.51765823364258,
        "longitude": -111.75686645507812
    },
    {
        "url": "https://www.zillow.com/homedetails/3382-N-1420-W-Howe-ID-83244/300231761_zpid/",
        "streetAddress": "3382 N 1420 W",
        "yearBuilt": 1950,
        "sqrfSize": 3595,
        "lotSize": 410770,
        "lastSoldPrice": 0,
        "taxAssessedValue": 173430,
        "latitude": 43.766258239746094,
        "longitude": -112.98230743408203
    },
    {
        "url": "https://www.zillow.com/homedetails/0-Pahsimeroi-Rd-Howe-ID-83244/2071051016_zpid/",
        "streetAddress": "0 Pahsimeroi Rd",
        "yearBuilt": "Unknown",
        "sqrfSize": 600,
        "lotSize": 206605080,
        "lastSoldPrice": 0,
        "taxAssessedValue": 0,
        "latitude": 43.86351776123047,
        "longitude": -113.03489685058594
    },
    {
        "url": "https://www.zillow.com/homedetails/Pahsimeroi-Rd-Howe-ID-83244/2071050821_zpid/",
        "streetAddress": "Pahsimeroi Rd",
        "yearBuilt": "Unknown",
        "sqrfSize": 0,
        "lotSize": 206605080,
        "lastSoldPrice": 0,
        "taxAssessedValue": 0,
        "latitude": 43.86351776123047,
        "longitude": -113.03489685058594
    },
    {
        "url": "https://www.zillow.com/homedetails/PARCEL-2700th-W-C-Howe-ID-83244/2078567254_zpid/",
        "streetAddress": "PARCEL 2700th W #C",
        "yearBuilt": "Unknown",
        "sqrfSize": 0,
        "lotSize": 1789619,
        "lastSoldPrice": 0,
        "taxAssessedValue": 0,
        "latitude": 43.86351776123047,
        "longitude": -113.03489685058594
    },
    {
        "url": "https://www.zillow.com/homedetails/PARCEL-2700th-W-D-Howe-ID-83244/2078567075_zpid/",
        "streetAddress": "PARCEL 2700th W #D",
        "yearBuilt": "Unknown",
        "sqrfSize": 0,
        "lotSize": 2122678,
        "lastSoldPrice": 0,
        "taxAssessedValue": 0,
        "latitude": 43.86351776123047,
        "longitude": -113.03489685058594
    },
    {
        "url": "https://www.zillow.com/homedetails/PARCEL-2700th-W-B-Howe-ID-83244/2077624065_zpid/",
        "streetAddress": "PARCEL 2700th W #B",
        "yearBuilt": "Unknown",
        "sqrfSize": 0,
        "lotSize": 1332936,
        "lastSoldPrice": 0,
        "taxAssessedValue": 0,
        "latitude": 43.86351776123047,
        "longitude": -113.03489685058594
    },
    {
        "url": "https://www.zillow.com/homedetails/5600N-2700th-W-Howe-ID-83244/2076599503_zpid/",
        "streetAddress": "5600N 2700th W",
        "yearBuilt": "Unknown",
        "sqrfSize": 0,
        "lotSize": 10715760,
        "lastSoldPrice": 0,
        "taxAssessedValue": 0,
        "latitude": 44.10023880004883,
        "longitude": -113.2346420288086
    },
    {
        "url": "https://www.zillow.com/homedetails/5691-N-2700-W-Howe-ID-83244/104622514_zpid/",
        "streetAddress": "5691 N 2700 W",
        "yearBuilt": "Unknown",
        "sqrfSize": 0,
        "lotSize": 5278165,
        "lastSoldPrice": 0,
        "taxAssessedValue": 113159,
        "latitude": 44.10023880004883,
        "longitude": -113.2346420288086
    },
    {
        "url": "https://www.zillow.com/homedetails/Parce-B-2700-W-Howe-ID-83244/2078567441_zpid/",
        "streetAddress": "Parce B 2700 W",
        "yearBuilt": "Unknown",
        "sqrfSize": 0,
        "lotSize": 1332936,
        "lastSoldPrice": 0,
        "taxAssessedValue": 0,
        "latitude": 43.86351776123047,
        "longitude": -113.03489685058594
    },
    {
        "url": "https://www.zillow.com/homedetails/5600-N-Howe-ID-83244/2078307261_zpid/",
        "streetAddress": "5600 N",
        "yearBuilt": "Unknown",
        "sqrfSize": 0,
        "lotSize": 10715760,
        "lastSoldPrice": 0,
        "taxAssessedValue": 0,
        "latitude": 43.86351776123047,
        "longitude": -113.03489685058594
    },
    {
        "url": "https://www.zillow.com/homedetails/2022-E-Pebble-Dr-Inkom-ID-83245/222814605_zpid/",
        "streetAddress": "2022 E Pebble Dr",
        "yearBuilt": 2008,
        "sqrfSize": 5716,
        "lotSize": 148104,
        "lastSoldPrice": 0,
        "taxAssessedValue": 482348,
        "latitude": 42.7844123840332,
        "longitude": -112.18270874023438
    },
    {
        "url": "https://www.zillow.com/homedetails/13504-S-Porcupine-Pass-Lava-Hot-Springs-ID-83246/121772064_zpid/",
        "streetAddress": "13504 S Porcupine Pass",
        "yearBuilt": 2012,
        "sqrfSize": 5848,
        "lotSize": 218235,
        "lastSoldPrice": 0,
        "taxAssessedValue": 429621,
        "latitude": 42.56789016723633,
        "longitude": -112.04884338378906
    },
    {
        "url": "https://www.zillow.com/homedetails/10897-Quail-Way-Lava-Hot-Springs-ID-83246/331548329_zpid/",
        "streetAddress": "10897 Quail Way",
        "yearBuilt": 2020,
        "sqrfSize": 8592,
        "lotSize": 296643,
        "lastSoldPrice": 0,
        "taxAssessedValue": 28817,
        "latitude": 42.59245300292969,
        "longitude": -112.02263641357422
    },
    {
        "url": "https://www.zillow.com/homedetails/13100-S-Porcupine-Pass-Lava-Hot-Springs-ID-83246/222814420_zpid/",
        "streetAddress": "13100 S Porcupine Pass",
        "yearBuilt": 2000,
        "sqrfSize": 2005,
        "lotSize": 218192,
        "lastSoldPrice": 0,
        "taxAssessedValue": 231330,
        "latitude": 42.574764251708984,
        "longitude": -112.0466079711914
    },
    {
        "url": "https://www.zillow.com/homedetails/15-Gros-Venture-Trl-Lava-Hot-Springs-ID-83246/2070531004_zpid/",
        "streetAddress": "15 Gros Venture Trl",
        "yearBuilt": "Unknown",
        "sqrfSize": 0,
        "lotSize": 176418,
        "lastSoldPrice": 0,
        "taxAssessedValue": 0,
        "latitude": 42.578697204589844,
        "longitude": -111.98058319091797
    },
    {
        "url": "https://www.zillow.com/homedetails/Smith-Canyon-Rd-Lava-Hot-Springs-ID-83246/2126031833_zpid/",
        "streetAddress": "Smith Canyon Rd",
        "yearBuilt": "Unknown",
        "sqrfSize": 0,
        "lotSize": 1637856,
        "lastSoldPrice": 0,
        "taxAssessedValue": 0,
        "latitude": 42.5775146484375,
        "longitude": -112.03936767578125
    },
    {
        "url": "https://www.zillow.com/homedetails/W-Merle-St-Lava-Hot-Springs-ID-83246/2070563051_zpid/",
        "streetAddress": "W Merle St",
        "yearBuilt": "Unknown",
        "sqrfSize": 0,
        "lotSize": 32670,
        "lastSoldPrice": 0,
        "taxAssessedValue": 0,
        "latitude": 42.61597442626953,
        "longitude": -112.01282501220703
    },
    {
        "url": "https://www.zillow.com/homedetails/13755-S-Racoon-Dr-Lava-Hot-Springs-ID-83246/117851178_zpid/",
        "streetAddress": "13755 S Racoon Dr",
        "yearBuilt": 2009,
        "sqrfSize": 1818,
        "lotSize": 241322,
        "lastSoldPrice": 0,
        "taxAssessedValue": 260390,
        "latitude": 42.56385040283203,
        "longitude": -112.06025695800781
    },
    {
        "url": "https://www.zillow.com/homedetails/13755-S-Raccoon-Dr-Lava-Hot-Springs-ID-83246/2070339775_zpid/",
        "streetAddress": "13755 S Raccoon Dr",
        "yearBuilt": 2009,
        "sqrfSize": 1818,
        "lotSize": 241322,
        "lastSoldPrice": 0,
        "taxAssessedValue": 0,
        "latitude": 42.5628776550293,
        "longitude": -112.05812072753906
    },
    {
        "url": "https://www.zillow.com/homedetails/7245-S-Grouse-Cir-Lava-Hot-Springs-ID-83246/251084071_zpid/",
        "streetAddress": "7245 S Grouse Cir",
        "yearBuilt": 1999,
        "sqrfSize": 1782,
        "lotSize": 496976,
        "lastSoldPrice": 0,
        "taxAssessedValue": 149478,
        "latitude": 42.59245300292969,
        "longitude": -112.02263641357422
    },
    {
        "url": "https://www.zillow.com/homedetails/42-Irel-Ln-4-Lava-Hot-Springs-ID-83246/2070765574_zpid/",
        "streetAddress": "42 Irel Ln #4",
        "yearBuilt": "Unknown",
        "sqrfSize": 0,
        "lotSize": 17859,
        "lastSoldPrice": 0,
        "taxAssessedValue": 0,
        "latitude": 42.59245300292969,
        "longitude": -112.02263641357422
    },
    {
        "url": "https://www.zillow.com/homedetails/31-Irel-Ln-3-Lava-Hot-Springs-ID-83246/2070765168_zpid/",
        "streetAddress": "31 Irel Ln #3",
        "yearBuilt": "Unknown",
        "sqrfSize": 0,
        "lotSize": 14374,
        "lastSoldPrice": 0,
        "taxAssessedValue": 0,
        "latitude": 42.59245300292969,
        "longitude": -112.02263641357422
    },
    {
        "url": "https://www.zillow.com/homedetails/0-Pocemoke-Lava-Hot-Springs-ID-83246/2075419832_zpid/",
        "streetAddress": "0 Pocemoke",
        "yearBuilt": "Unknown",
        "sqrfSize": 0,
        "lotSize": 319294,
        "lastSoldPrice": 0,
        "taxAssessedValue": 0,
        "latitude": 42.59245300292969,
        "longitude": -112.02263641357422
    },
    {
        "url": "https://www.zillow.com/community/belterra-on-center/2071185920_zpid/",
        "streetAddress": "Tudor Country Plan, Belterra on Center",
        "yearBuilt": 2021,
        "sqrfSize": 1800,
        "lotSize": 0,
        "lastSoldPrice": 0,
        "taxAssessedValue": 0,
        "latitude": 42.64506912231445,
        "longitude": -112.19145965576172
    },
    {
        "url": "https://www.zillow.com/community/belterra-on-center/2071185919_zpid/",
        "streetAddress": "Tudor Classic Plan, Belterra on Center",
        "yearBuilt": 2021,
        "sqrfSize": 1905,
        "lotSize": 0,
        "lastSoldPrice": 0,
        "taxAssessedValue": 0,
        "latitude": 42.64506912231445,
        "longitude": -112.19145965576172
    },
    {
        "url": "https://www.zillow.com/homedetails/2424-S-Marsh-Creek-Rd-Mccammon-ID-83250/113847546_zpid/",
        "streetAddress": "2424 S Marsh Creek Rd",
        "yearBuilt": 1976,
        "sqrfSize": 2674,
        "lotSize": 377665,
        "lastSoldPrice": 0,
        "taxAssessedValue": 220404,
        "latitude": 42.726707458496094,
        "longitude": -112.23391723632812
    },
    {
        "url": "https://www.zillow.com/homedetails/4306-Highway-93-Mackay-ID-83251/115515276_zpid/",
        "streetAddress": "4306 Highway 93",
        "yearBuilt": 2005,
        "sqrfSize": 2250,
        "lotSize": 109335,
        "lastSoldPrice": 0,
        "taxAssessedValue": 147820,
        "latitude": 43.903202056884766,
        "longitude": -113.5951919555664
    },
    {
        "url": "https://www.zillow.com/homedetails/180-Crows-Nest-Loop-Mackay-ID-83251/247431768_zpid/",
        "streetAddress": "180 Crows Nest Loop",
        "yearBuilt": "Unknown",
        "sqrfSize": 0,
        "lotSize": 246114,
        "lastSoldPrice": 0,
        "taxAssessedValue": 57810,
        "latitude": 43.890235900878906,
        "longitude": -113.52667999267578
    },
    {
        "url": "https://www.zillow.com/homedetails/Antelope-Rd-Mackay-ID-83251/2070411102_zpid/",
        "streetAddress": "Antelope Rd",
        "yearBuilt": "Unknown",
        "sqrfSize": 0,
        "lotSize": 6859393,
        "lastSoldPrice": 0,
        "taxAssessedValue": 0,
        "latitude": 43.74654006958008,
        "longitude": -113.48906707763672
    },
    {
        "url": "https://www.zillow.com/homedetails/Antelope-Creek-Rd-Mackay-ID-83251/2105313988_zpid/",
        "streetAddress": "Antelope Creek Rd",
        "yearBuilt": "Unknown",
        "sqrfSize": 0,
        "lotSize": 6859393,
        "lastSoldPrice": 0,
        "taxAssessedValue": 0,
        "latitude": 43.643192291259766,
        "longitude": -113.70455169677734
    },
    {
        "url": "https://www.zillow.com/homedetails/Copper-Basin-Rd-Mackay-ID-83251/2070419548_zpid/",
        "streetAddress": "Copper Basin Rd",
        "yearBuilt": "Unknown",
        "sqrfSize": 0,
        "lotSize": 1742400,
        "lastSoldPrice": 0,
        "taxAssessedValue": 0,
        "latitude": 43.80259704589844,
        "longitude": -113.82986450195312
    },
    {
        "url": "https://www.zillow.com/homedetails/4068-W-Houston-Rd-Mackay-ID-83251/242937461_zpid/",
        "streetAddress": "4068 W Houston Rd",
        "yearBuilt": "Unknown",
        "sqrfSize": 0,
        "lotSize": 21083040,
        "lastSoldPrice": 0,
        "taxAssessedValue": 100440,
        "latitude": 43.85946273803711,
        "longitude": -113.50997161865234
    },
    {
        "url": "https://www.zillow.com/homedetails/3858-Quail-Ln-Mackay-ID-83251/242937234_zpid/",
        "streetAddress": "3858 Quail Ln",
        "yearBuilt": 2006,
        "sqrfSize": 1688,
        "lotSize": 93654,
        "lastSoldPrice": 0,
        "taxAssessedValue": 112800,
        "latitude": 43.86016845703125,
        "longitude": -113.4695053100586
    },
    {
        "url": "https://www.zillow.com/homedetails/5908-5500th-Rd-N-Mackay-ID-83251/2070758452_zpid/",
        "streetAddress": "5908 5500th Rd N",
        "yearBuilt": "Unknown",
        "sqrfSize": 0,
        "lotSize": 875948,
        "lastSoldPrice": 0,
        "taxAssessedValue": 0,
        "latitude": 44.07436752319336,
        "longitude": -113.88932037353516
    },
    {
        "url": "https://www.zillow.com/homedetails/LOT-1-Crows-Nest-Loop-Mackay-ID-83251/2071499088_zpid/",
        "streetAddress": "LOT 1 Crows Nest Loop",
        "yearBuilt": "Unknown",
        "sqrfSize": 0,
        "lotSize": 240451,
        "lastSoldPrice": 0,
        "taxAssessedValue": 0,
        "latitude": 43.891357421875,
        "longitude": -113.53223419189453
    },
    {
        "url": "https://www.zillow.com/homedetails/LOT-3-Bar-Lightning-Rnch-Mackay-ID-83251/2076489545_zpid/",
        "streetAddress": "LOT 3 Bar Lightning Rnch",
        "yearBuilt": "Unknown",
        "sqrfSize": 0,
        "lotSize": 3012609,
        "lastSoldPrice": 0,
        "taxAssessedValue": 0,
        "latitude": 43.94419860839844,
        "longitude": -113.76820373535156
    },
    {
        "url": "https://www.zillow.com/homedetails/4897-Trail-Creek-Rd-Mackay-ID-83251/242937587_zpid/",
        "streetAddress": "4897 Trail Creek Rd",
        "yearBuilt": "Unknown",
        "sqrfSize": 0,
        "lotSize": 3484800,
        "lastSoldPrice": 0,
        "taxAssessedValue": 3700,
        "latitude": 43.9232292175293,
        "longitude": -114.1219711303711
    },
    {
        "url": "https://www.zillow.com/homedetails/6545-W-Howell-Canyon-Rd-Mackay-ID-83251/115515332_zpid/",
        "streetAddress": "6545 W Howell Canyon Rd",
        "yearBuilt": 1940,
        "sqrfSize": 651,
        "lotSize": 31861962,
        "lastSoldPrice": 0,
        "taxAssessedValue": 84850,
        "latitude": 44.0703125,
        "longitude": -114.02255249023438
    },
    {
        "url": "https://www.zillow.com/homedetails/6728-N-Copper-Basin-Rd-Mackay-ID-83251/115515302_zpid/",
        "streetAddress": "6728 N Copper Basin Rd",
        "yearBuilt": "Unknown",
        "sqrfSize": 0,
        "lotSize": 5401440,
        "lastSoldPrice": 0,
        "taxAssessedValue": 89020,
        "latitude": 43.895545959472656,
        "longitude": -114.04838562011719
    },
    {
        "url": "https://www.zillow.com/homedetails/113-Burnett-Ct-Mackay-ID-83251/247432205_zpid/",
        "streetAddress": "113 Burnett Ct",
        "yearBuilt": "Unknown",
        "sqrfSize": 0,
        "lotSize": 10890,
        "lastSoldPrice": 0,
        "taxAssessedValue": 22670,
        "latitude": 43.9111213684082,
        "longitude": -113.60926818847656
    },
    {
        "url": "https://www.zillow.com/homedetails/6845-Howell-Canyon-Rd-Mackay-ID-83251/2076433909_zpid/",
        "streetAddress": "6845 Howell Canyon Rd",
        "yearBuilt": "Unknown",
        "sqrfSize": 651,
        "lotSize": 31842360,
        "lastSoldPrice": 0,
        "taxAssessedValue": 0,
        "latitude": 44.07666778564453,
        "longitude": -114.0035400390625
    },
    {
        "url": "https://www.zillow.com/homedetails/525-N-600-W-Malad-City-ID-83252/104652371_zpid/",
        "streetAddress": "525 N 600 W",
        "yearBuilt": 1923,
        "sqrfSize": 2222,
        "lotSize": 17424,
        "lastSoldPrice": 0,
        "taxAssessedValue": 89018,
        "latitude": 42.19675064086914,
        "longitude": -112.26248931884766
    },
    {
        "url": "https://www.zillow.com/homedetails/340-Ranch-Ln-Malad-City-ID-83252/2070451631_zpid/",
        "streetAddress": "340 Ranch Ln",
        "yearBuilt": "Unknown",
        "sqrfSize": 0,
        "lotSize": 179031,
        "lastSoldPrice": 0,
        "taxAssessedValue": 0,
        "latitude": 42.18068313598633,
        "longitude": -112.26603698730469
    },
    {
        "url": "https://www.zillow.com/homedetails/554-N-100-W-Malad-City-ID-83252/194495064_zpid/",
        "streetAddress": "554 N 100 W",
        "yearBuilt": 1996,
        "sqrfSize": 4000,
        "lotSize": 103237,
        "lastSoldPrice": 0,
        "taxAssessedValue": 96514,
        "latitude": 42.19711685180664,
        "longitude": -112.24757385253906
    },
    {
        "url": "https://www.zillow.com/homedetails/21905-W-100500-S-Malad-City-ID-83252/2078031538_zpid/",
        "streetAddress": "21905 W 100500 S",
        "yearBuilt": "Unknown",
        "sqrfSize": 0,
        "lotSize": 51400,
        "lastSoldPrice": 0,
        "taxAssessedValue": 0,
        "latitude": 42.1741828918457,
        "longitude": -112.4343490600586
    },
    {
        "url": "https://www.zillow.com/homedetails/551-S-4600-W-Malad-City-ID-83252/248413381_zpid/",
        "streetAddress": "551 S 4600 W",
        "yearBuilt": "Unknown",
        "sqrfSize": 0,
        "lotSize": 239580,
        "lastSoldPrice": 0,
        "taxAssessedValue": 46475,
        "latitude": 42.177059173583984,
        "longitude": -112.33492279052734
    },
    {
        "url": "https://www.zillow.com/homedetails/551-S-4600-W-1-Malad-City-ID-83252/2070528340_zpid/",
        "streetAddress": "551 S 4600 W #1",
        "yearBuilt": "Unknown",
        "sqrfSize": 0,
        "lotSize": 239580,
        "lastSoldPrice": 0,
        "taxAssessedValue": 0,
        "latitude": 42.17706298828125,
        "longitude": -112.33493041992188
    },
    {
        "url": "https://www.zillow.com/homedetails/4800-S-Old-Highway-191-6-Malad-City-ID-83252/2070547152_zpid/",
        "streetAddress": "4800 S Old Highway 191 #6",
        "yearBuilt": "Unknown",
        "sqrfSize": 0,
        "lotSize": 132858,
        "lastSoldPrice": 0,
        "taxAssessedValue": 0,
        "latitude": 42.114376068115234,
        "longitude": -112.22863006591797
    },
    {
        "url": "https://www.zillow.com/homedetails/22050-W-10500-S-Malad-City-ID-83252/2076653582_zpid/",
        "streetAddress": "22050 W 10500 S",
        "yearBuilt": "Unknown",
        "sqrfSize": 0,
        "lotSize": 283140,
        "lastSoldPrice": 0,
        "taxAssessedValue": 0,
        "latitude": 42.029178619384766,
        "longitude": -112.67728424072266
    },
    {
        "url": "https://www.zillow.com/homedetails/987-S-5400-W-Malad-City-ID-83252/104657042_zpid/",
        "streetAddress": "987 S 5400 W",
        "yearBuilt": 1978,
        "sqrfSize": 3188,
        "lotSize": 87120,
        "lastSoldPrice": 0,
        "taxAssessedValue": 143103,
        "latitude": 42.170814514160156,
        "longitude": -112.34986114501953
    },
    {
        "url": "https://www.zillow.com/homedetails/284-N-100-W-Malad-City-ID-83252/104659515_zpid/",
        "streetAddress": "284 N 100 W",
        "yearBuilt": 1940,
        "sqrfSize": 2242,
        "lotSize": 13939,
        "lastSoldPrice": 0,
        "taxAssessedValue": 121356,
        "latitude": 42.19123840332031,
        "longitude": -112.24749755859375
    },
    {
        "url": "https://www.zillow.com/homedetails/900-W-9700-S-Malad-City-ID-83252/2070909603_zpid/",
        "streetAddress": "900 W 9700 S",
        "yearBuilt": "Unknown",
        "sqrfSize": 0,
        "lotSize": 20908800,
        "lastSoldPrice": 0,
        "taxAssessedValue": 0,
        "latitude": 42.042564392089844,
        "longitude": -112.27715301513672
    },
    {
        "url": "https://www.zillow.com/homedetails/114-E-90-S-Malad-City-ID-83252/2071192250_zpid/",
        "streetAddress": "114 E 90 S",
        "yearBuilt": 1985,
        "sqrfSize": 6766,
        "lotSize": 28314,
        "lastSoldPrice": 0,
        "taxAssessedValue": 0,
        "latitude": 42.183773040771484,
        "longitude": -112.24222564697266
    },
    {
        "url": "https://www.zillow.com/homedetails/94-E-50-S-Malad-City-ID-83252/2071192251_zpid/",
        "streetAddress": "94 E 50 S",
        "yearBuilt": 1977,
        "sqrfSize": 11764,
        "lotSize": 40075,
        "lastSoldPrice": 0,
        "taxAssessedValue": 0,
        "latitude": 42.18458938598633,
        "longitude": -112.24182891845703
    },
    {
        "url": "https://www.zillow.com/homedetails/120-E-90-S-Malad-City-ID-83252/2071192311_zpid/",
        "streetAddress": "120 E 90 S",
        "yearBuilt": 1979,
        "sqrfSize": 9096,
        "lotSize": 33105,
        "lastSoldPrice": 0,
        "taxAssessedValue": 0,
        "latitude": 42.183773040771484,
        "longitude": -112.24221801757812
    },
    {
        "url": "https://www.zillow.com/homedetails/260-W-600-N-Malad-City-ID-83252/194495083_zpid/",
        "streetAddress": "260 W 600 N",
        "yearBuilt": "Unknown",
        "sqrfSize": 0,
        "lotSize": 27442,
        "lastSoldPrice": 0,
        "taxAssessedValue": 30084,
        "latitude": 42.19854736328125,
        "longitude": -112.2524642944336
    },
    {
        "url": "https://www.zillow.com/homedetails/224-N-Main-St-Malad-City-ID-83252/104656994_zpid/",
        "streetAddress": "224 N Main St",
        "yearBuilt": 1925,
        "sqrfSize": 4656,
        "lotSize": 19602,
        "lastSoldPrice": 0,
        "taxAssessedValue": 160100,
        "latitude": 42.19013214111328,
        "longitude": -112.24467468261719
    },
    {
        "url": "https://www.zillow.com/homedetails/W-10500-S-Malad-City-ID-83252/2073536950_zpid/",
        "streetAddress": "W 10500 S",
        "yearBuilt": "Unknown",
        "sqrfSize": 0,
        "lotSize": 1045440,
        "lastSoldPrice": 0,
        "taxAssessedValue": 0,
        "latitude": 42.02894973754883,
        "longitude": -112.70471954345703
    },
    {
        "url": "https://www.zillow.com/homedetails/21650-W-10500-S-Malad-City-ID-83252/2078618421_zpid/",
        "streetAddress": "21650 W 10500 S",
        "yearBuilt": "Unknown",
        "sqrfSize": 0,
        "lotSize": 217800,
        "lastSoldPrice": 0,
        "taxAssessedValue": 0,
        "latitude": 42.02923583984375,
        "longitude": -112.6638412475586
    },
    {
        "url": "https://www.zillow.com/homedetails/21500-W-10500-S-Malad-City-ID-83252/2078618496_zpid/",
        "streetAddress": "21500 W 10500 S",
        "yearBuilt": "Unknown",
        "sqrfSize": 0,
        "lotSize": 435600,
        "lastSoldPrice": 0,
        "taxAssessedValue": 0,
        "latitude": 42.02927017211914,
        "longitude": -112.65637969970703
    },
    {
        "url": "https://www.zillow.com/homedetails/21905-W-10500-S-Malad-City-ID-83252/2078030847_zpid/",
        "streetAddress": "21905 W 10500 S",
        "yearBuilt": "Unknown",
        "sqrfSize": 0,
        "lotSize": 51400,
        "lastSoldPrice": 0,
        "taxAssessedValue": 0,
        "latitude": 42.02924728393555,
        "longitude": -112.66152954101562
    },
    {
        "url": "https://www.zillow.com/homedetails/63-S-Main-St-Malad-City-ID-83252/104652252_zpid/",
        "streetAddress": "63 S Main St",
        "yearBuilt": 1914,
        "sqrfSize": 4668,
        "lotSize": 8276,
        "lastSoldPrice": 0,
        "taxAssessedValue": 182188,
        "latitude": 42.184593200683594,
        "longitude": -112.24362182617188
    },
    {
        "url": "https://www.zillow.com/homedetails/6555-N-Country-Estates-Ln-Malad-City-ID-83252/2072158913_zpid/",
        "streetAddress": "6555 N Country Estates Ln",
        "yearBuilt": "Unknown",
        "sqrfSize": 0,
        "lotSize": 213444,
        "lastSoldPrice": 0,
        "taxAssessedValue": 0,
        "latitude": 42.27962112426758,
        "longitude": -112.17381286621094
    },
    {
        "url": "https://www.zillow.com/homedetails/3094-N-3900-W-4-Malad-City-ID-83252/2072178013_zpid/",
        "streetAddress": "3094 N 3900 W #4",
        "yearBuilt": "Unknown",
        "sqrfSize": 0,
        "lotSize": 247420,
        "lastSoldPrice": 0,
        "taxAssessedValue": 0,
        "latitude": 42.238563537597656,
        "longitude": -112.32113647460938
    },
    {
        "url": "https://www.zillow.com/homedetails/3125-N-3900-W-9-Malad-City-ID-83252/2072178299_zpid/",
        "streetAddress": "3125 N 3900 W #9",
        "yearBuilt": "Unknown",
        "sqrfSize": 0,
        "lotSize": 222591,
        "lastSoldPrice": 0,
        "taxAssessedValue": 0,
        "latitude": 42.24885940551758,
        "longitude": -112.32105255126953
    },
    {
        "url": "https://www.zillow.com/homedetails/6555-N-Country-Ests-W-12-Malad-City-ID-83252/2072307325_zpid/",
        "streetAddress": "6555 N Country Ests W #12",
        "yearBuilt": "Unknown",
        "sqrfSize": 0,
        "lotSize": 200375,
        "lastSoldPrice": 0,
        "taxAssessedValue": 0,
        "latitude": 42.27961349487305,
        "longitude": -112.1738052368164
    },
    {
        "url": "https://www.zillow.com/homedetails/1900-S-5400-W-Malad-City-ID-83252/2073009709_zpid/",
        "streetAddress": "1900 S 5400 W",
        "yearBuilt": "Unknown",
        "sqrfSize": 0,
        "lotSize": 418176,
        "lastSoldPrice": 0,
        "taxAssessedValue": 0,
        "latitude": 42.155879974365234,
        "longitude": -112.35045623779297
    },
    {
        "url": "https://www.zillow.com/homedetails/182-N-Main-St-Malad-City-ID-83252/104656990_zpid/",
        "streetAddress": "182 N Main St",
        "yearBuilt": 1900,
        "sqrfSize": 1340,
        "lotSize": 12196,
        "lastSoldPrice": 0,
        "taxAssessedValue": 86790,
        "latitude": 42.18901443481445,
        "longitude": -112.24471282958984
    },
    {
        "url": "https://www.zillow.com/homedetails/500-W-11000-N-Malad-City-ID-83252/2073220912_zpid/",
        "streetAddress": "500 W 11000 N",
        "yearBuilt": "Unknown",
        "sqrfSize": 0,
        "lotSize": 1873951,
        "lastSoldPrice": 0,
        "taxAssessedValue": 0,
        "latitude": 42.3435173034668,
        "longitude": -112.23792266845703
    },
    {
        "url": "https://www.zillow.com/homedetails/22260-W-10500-S-Stone-ID-83252/194495489_zpid/",
        "streetAddress": "22260 W 10500 S",
        "yearBuilt": "Unknown",
        "sqrfSize": 0,
        "lotSize": 20538540,
        "lastSoldPrice": 0,
        "taxAssessedValue": 151285,
        "latitude": 42.025489807128906,
        "longitude": -112.6854248046875
    },
    {
        "url": "https://www.zillow.com/homedetails/1-E-100-N-Malad-City-ID-83252/2112052345_zpid/",
        "streetAddress": "1 E 100 N",
        "yearBuilt": 1963,
        "sqrfSize": 0,
        "lotSize": 13503,
        "lastSoldPrice": 0,
        "taxAssessedValue": 0,
        "latitude": 42.18766403198242,
        "longitude": -112.24494171142578
    },
    {
        "url": "https://www.zillow.com/homedetails/22000-W-10500-S-Stone-ID-83252/2081161890_zpid/",
        "streetAddress": "22000 W 10500 S",
        "yearBuilt": 2000,
        "sqrfSize": 0,
        "lotSize": 10890000,
        "lastSoldPrice": 0,
        "taxAssessedValue": 0,
        "latitude": 42.0291862487793,
        "longitude": -112.67570495605469
    },
    {
        "url": "https://www.zillow.com/homedetails/700-W-Malad-City-ID-83252/2076750941_zpid/",
        "streetAddress": "700 W",
        "yearBuilt": "Unknown",
        "sqrfSize": 0,
        "lotSize": 10454400,
        "lastSoldPrice": 0,
        "taxAssessedValue": 0,
        "latitude": 42.350074768066406,
        "longitude": -112.2538070678711
    },
    {
        "url": "https://www.zillow.com/homedetails/21500-W-100500-S-Malad-City-ID-83252/2078618272_zpid/",
        "streetAddress": "21500 W 100500 S",
        "yearBuilt": "Unknown",
        "sqrfSize": 0,
        "lotSize": 435600,
        "lastSoldPrice": 0,
        "taxAssessedValue": 0,
        "latitude": 42.1741828918457,
        "longitude": -112.4343490600586
    },
    {
        "url": "https://www.zillow.com/homedetails/21650-W-100500-S-Malad-City-ID-83252/2078618159_zpid/",
        "streetAddress": "21650 W 100500 S",
        "yearBuilt": "Unknown",
        "sqrfSize": 0,
        "lotSize": 217800,
        "lastSoldPrice": 0,
        "taxAssessedValue": 0,
        "latitude": 42.1741828918457,
        "longitude": -112.4343490600586
    },
    {
        "url": "https://www.zillow.com/homedetails/391-S-4th-St-Montpelier-ID-83254/2070268117_zpid/",
        "streetAddress": "391 S 4th St",
        "yearBuilt": "Unknown",
        "sqrfSize": 0,
        "lotSize": 37026,
        "lastSoldPrice": 0,
        "taxAssessedValue": 0,
        "latitude": 42.32406997680664,
        "longitude": -111.29774475097656
    },
    {
        "url": "https://www.zillow.com/homedetails/210-Washington-St-Montpelier-ID-83254/194650158_zpid/",
        "streetAddress": "210 Washington St",
        "yearBuilt": 1975,
        "sqrfSize": 1800,
        "lotSize": 17424,
        "lastSoldPrice": 0,
        "taxAssessedValue": 99647,
        "latitude": 42.31856918334961,
        "longitude": -111.29364776611328
    },
    {
        "url": "https://www.zillow.com/homedetails/245-Garfield-St-Montpelier-ID-83254/194650176_zpid/",
        "streetAddress": "245 Garfield St",
        "yearBuilt": "Unknown",
        "sqrfSize": 0,
        "lotSize": 36590,
        "lastSoldPrice": 0,
        "taxAssessedValue": 16957,
        "latitude": 42.3238525390625,
        "longitude": -111.29373168945312
    },
    {
        "url": "https://www.zillow.com/homedetails/495-Clay-St-Montpelier-ID-83254/104613305_zpid/",
        "streetAddress": "495 Clay St",
        "yearBuilt": 1956,
        "sqrfSize": 1944,
        "lotSize": 7405,
        "lastSoldPrice": 0,
        "taxAssessedValue": 101991,
        "latitude": 42.321815490722656,
        "longitude": -111.30047607421875
    },
    {
        "url": "https://www.zillow.com/homedetails/1293-Border-Rd-Montpelier-ID-83254/2083811903_zpid/",
        "streetAddress": "1293 Border Rd",
        "yearBuilt": "Unknown",
        "sqrfSize": 0,
        "lotSize": 1616076,
        "lastSoldPrice": 0,
        "taxAssessedValue": 0,
        "latitude": 42.19770431518555,
        "longitude": -111.0528793334961
    },
    {
        "url": "https://www.zillow.com/homedetails/815-Jackson-St-Montpelier-ID-83254/194649545_zpid/",
        "streetAddress": "815 Jackson St",
        "yearBuilt": 1972,
        "sqrfSize": 1000,
        "lotSize": 6969,
        "lastSoldPrice": 0,
        "taxAssessedValue": 38053,
        "latitude": 42.316314697265625,
        "longitude": -111.3072509765625
    },
    {
        "url": "https://www.zillow.com/homedetails/0-S-Dingle-Cemetary-Rd-E-NA-Montpelier-ID-83254/2071217129_zpid/",
        "streetAddress": "0 S Dingle Cemetary Rd E #NA",
        "yearBuilt": "Unknown",
        "sqrfSize": 0,
        "lotSize": 67910040,
        "lastSoldPrice": 0,
        "taxAssessedValue": 0,
        "latitude": 42.33560562133789,
        "longitude": -111.30278015136719
    },
    {
        "url": "https://www.zillow.com/homedetails/0-Dingle-Cemetary-Rd-Montpelier-ID-83254/2071223216_zpid/",
        "streetAddress": "0 Dingle Cemetary Rd",
        "yearBuilt": "Unknown",
        "sqrfSize": 0,
        "lotSize": 67910040,
        "lastSoldPrice": 0,
        "taxAssessedValue": 0,
        "latitude": 42.33560562133789,
        "longitude": -111.30278015136719
    },
    {
        "url": "https://www.zillow.com/homedetails/515-N-3rd-St-Montpelier-ID-83254/104606386_zpid/",
        "streetAddress": "515 N 3rd St",
        "yearBuilt": 1961,
        "sqrfSize": 2052,
        "lotSize": 9583,
        "lastSoldPrice": 0,
        "taxAssessedValue": 117240,
        "latitude": 42.3269157409668,
        "longitude": -111.29511260986328
    },
    {
        "url": "https://www.zillow.com/homedetails/427-N-4th-St-Montpelier-ID-83254/104613316_zpid/",
        "streetAddress": "427 N 4th St",
        "yearBuilt": 1917,
        "sqrfSize": 2617,
        "lotSize": 31798,
        "lastSoldPrice": 0,
        "taxAssessedValue": 103323,
        "latitude": 42.32491683959961,
        "longitude": -111.29853820800781
    },
    {
        "url": "https://www.zillow.com/homedetails/139-N-7th-St-Montpelier-ID-83254/194649973_zpid/",
        "streetAddress": "139 N 7th St",
        "yearBuilt": 1915,
        "sqrfSize": 864,
        "lotSize": 4791,
        "lastSoldPrice": 0,
        "taxAssessedValue": 60778,
        "latitude": 42.31855010986328,
        "longitude": -111.3050537109375
    },
    {
        "url": "https://www.zillow.com/homedetails/842-Grant-St-Montpelier-ID-83254/104605976_zpid/",
        "streetAddress": "842 Grant St",
        "yearBuilt": 1906,
        "sqrfSize": 1179,
        "lotSize": 7840,
        "lastSoldPrice": 0,
        "taxAssessedValue": 65215,
        "latitude": 42.31917190551758,
        "longitude": -111.30818176269531
    },